{"businesses": [{"id": "taste-of-north-china-jersey-city", "name": "Taste Of North China", "image_url": "https://s3-media2.fl.yelpcdn.com/bphoto/1lykDg_ecAu9pJfO4rG__Q/o.jpg", "is_closed": false, "url": "https://www.yelp.com/biz/taste-of-north-china-jersey-city?adjust_creative=pY8zJUWQtPjP9LVSrcR4eg&utm_campaign=yelp_api_v3&utm_medium=api_v3_business_search&utm_source=pY8zJUWQtPjP9LVSrcR4eg", "review_count": 161, "categories": [{"alias": "chinese", "title": "Chinese"}], "rating": 3.0, "coordinates": {"latitude": 40.7167868, "longitude": -74.0377625661521}, "transactions": ["delivery", "pickup"], "price": "$$", "location": {"address1": "75 Montgomery St", "address2": "", "address3": "", "city": "Jersey City", "zip_code": "07302", "country": "US", "state": "NJ", "display_address": ["75 Montgomery St", "Jersey City, NJ 07302"]}, "phone": "+12015211800", "display_phone": "(201) 521-1800", "distance": 3874.8623640643414}, {"id": "shui-mei-cafe-new-york", "name": "Shui Mei Cafe", "image_url": "https://s3-media1.fl.yelpcdn.com/bphoto/miBMEMLKmDIzZDrJfOmJOQ/o.jpg", "is_closed": false, "url": "https://www.yelp.com/biz/shui-mei-cafe-new-york?adjust_creative=pY8zJUWQtPjP9LVSrcR4eg&utm_campaign=yelp_api_v3&utm_medium=api_v3_business_search&utm_source=pY8zJUWQtPjP9LVSrcR4eg", "review_count": 30, "categories": [{"alias": "cafes", "title": "Cafes"}, {"alias": "chinese", "title": "Chinese"}], "rating": 4.5, "coordinates": {"latitude": 40.7135318, "longitude": -73.9948386}, "transactions": [], "price": "$", "location": {"address1": "67 E Broadway", "address2": "", "address3": "", "city": "New York", "zip_code": "10002", "country": "US", "state": "NY", "display_address": ["67 E Broadway", "New York, NY 10002"]}, "phone": "+12127912819", "display_phone": "(212) 791-2819", "distance": 900.399471364824}, {"id": "great-ny-noodle-town-new-york", "name": "Great NY Noodle Town", "image_url": "https://s3-media3.fl.yelpcdn.com/bphoto/BAzE7G6WNiUqJqLTRPYSvA/o.jpg", "is_closed": false, "url": "https://www.yelp.com/biz/great-ny-noodle-town-new-york?adjust_creative=pY8zJUWQtPjP9LVSrcR4eg&utm_campaign=yelp_api_v3&utm_medium=api_v3_business_search&utm_source=pY8zJUWQtPjP9LVSrcR4eg", "review_count": 1076, "categories": [{"alias": "cantonese", "title": "Cantonese"}, {"alias": "noodles", "title": "Noodles"}], "rating": 3.5, "coordinates": {"latitude": 40.7150363828814, "longitude": -73.9971172437072}, "transactions": [], "price": "$", "location": {"address1": "28 Bowery", "address2": "", "address3": "", "city": "New York", "zip_code": "10013", "country": "US", "state": "NY", "display_address": ["28 Bowery", "New York, NY 10013"]}, "phone": "+12123490923", "display_phone": "(212) 349-0923", "distance": 1092.766469061676}, {"id": "china-chalet-new-york-5", "name": "China Chalet", "image_url": "https://s3-media3.fl.yelpcdn.com/bphoto/ykv_NWw342qWLNC9TJUAdw/o.jpg", "is_closed": false, "url": "https://www.yelp.com/biz/china-chalet-new-york-5?adjust_creative=pY8zJUWQtPjP9LVSrcR4eg&utm_campaign=yelp_api_v3&utm_medium=api_v3_business_search&utm_source=pY8zJUWQtPjP9LVSrcR4eg", "review_count": 141, "categories": [{"alias": "chinese", "title": "Chinese"}], "rating": 3.0, "coordinates": {"latitude": 40.7065032987417, "longitude": -74.012940146627}, "transactions": ["delivery", "pickup"], "price": "$$", "location": {"address1": "47 Broadway", "address2": "", "address3": "", "city": "New York", "zip_code": "10006", "country": "US", "state": "NY", "display_address": ["47 Broadway", "New York, NY 10006"]}, "phone": "+12129434380", "display_phone": "(212) 943-4380", "distance": 1576.20675841138}, {"id": "wing-hing-chinese-restaurant-brooklyn", "name": "Wing Hing Chinese Restaurant", "image_url": "https://s3-media1.fl.yelpcdn.com/bphoto/Gp4UnwLqnhiDQ6IRshLKgg/o.jpg", "is_closed": false, "url": "https://www.yelp.com/biz/wing-hing-chinese-restaurant-brooklyn?adjust_creative=pY8zJUWQtPjP9LVSrcR4eg&utm_campaign=yelp_api_v3&utm_medium=api_v3_business_search&utm_source=pY8zJUWQtPjP9LVSrcR4eg", "review_count": 12, "categories": [{"alias": "chinese", "title": "Chinese"}], "rating": 4.5, "coordinates": {"latitude": 40.665832, "longitude": -73.953918}, "transactions": [], "price": "$", "location": {"address1": "312 Rogers Ave", "address2": "", "address3": "", "city": "Brooklyn", "zip_code": "11225", "country": "US", "state": "NY", "display_address": ["312 Rogers Ave", "Brooklyn, NY 11225"]}, "phone": "+17189535152", "display_phone": "(718) 953-5152", "distance": 5568.0960105430395}, {"id": "chung-chun-kitchen-brooklyn-2", "name": "Chung Chun Kitchen", "image_url": "https://s3-media2.fl.yelpcdn.com/bphoto/BiQVxjC71uhb7KKQafkfdw/o.jpg", "is_closed": false, "url": "https://www.yelp.com/biz/chung-chun-kitchen-brooklyn-2?adjust_creative=pY8zJUWQtPjP9LVSrcR4eg&utm_campaign=yelp_api_v3&utm_medium=api_v3_business_search&utm_source=pY8zJUWQtPjP9LVSrcR4eg", "review_count": 18, "categories": [{"alias": "chinese", "title": "Chinese"}], "rating": 4.0, "coordinates": {"latitude": 40.69314, "longitude": -73.973}, "transactions": [], "price": "$", "location": {"address1": "338 Myrtle Ave", "address2": null, "address3": null, "city": "Brooklyn", "zip_code": "11205", "country": "US", "state": "NY", "display_address": ["338 Myrtle Ave", "Brooklyn, NY 11205"]}, "phone": "+17188552119", "display_phone": "(718) 855-2119", "distance": 2257.289232486052}, {"id": "manting-new-york", "name": "Manting", "image_url": "https://s3-media2.fl.yelpcdn.com/bphoto/aepjTXP4X9dDHuXLRIDjEg/o.jpg", "is_closed": false, "url": "https://www.yelp.com/biz/manting-new-york?adjust_creative=pY8zJUWQtPjP9LVSrcR4eg&utm_campaign=yelp_api_v3&utm_medium=api_v3_business_search&utm_source=pY8zJUWQtPjP9LVSrcR4eg", "review_count": 152, "categories": [{"alias": "chinese", "title": "Chinese"}], "rating": 3.5, "coordinates": {"latitude": 40.7601476826859, "longitude": -73.9829980954528}, "transactions": ["delivery", "pickup", "restaurant_reservation"], "price": "$$", "location": {"address1": "150 W 49th St", "address2": "", "address3": "", "city": "New York", "zip_code": "10019", "country": "US", "state": "NY", "display_address": ["150 W 49th St", "New York, NY 10019"]}, "phone": "+16469217777", "display_phone": "(646) 921-7777", "distance": 6156.673376637098}, {"id": "nuevo-jardin-de-china-restaurant-astoria", "name": "Nuevo Jardin De China Restaurant", "image_url": "https://s3-media2.fl.yelpcdn.com/bphoto/pT1EbriA4ppwiTAGJ-x9zA/o.jpg", "is_closed": false, "url": "https://www.yelp.com/biz/nuevo-jardin-de-china-restaurant-astoria?adjust_creative=pY8zJUWQtPjP9LVSrcR4eg&utm_campaign=yelp_api_v3&utm_medium=api_v3_business_search&utm_source=pY8zJUWQtPjP9LVSrcR4eg", "review_count": 179, "categories": [{"alias": "chinese", "title": "Chinese"}, {"alias": "cuban", "title": "Cuban"}], "rating": 3.5, "coordinates": {"latitude": 40.7615513755699, "longitude": -73.9243148820204}, "transactions": [], "price": "$$", "location": {"address1": "3205 Broadway", "address2": "", "address3": "", "city": "Astoria", "zip_code": "11106", "country": "US", "state": "NY", "display_address": ["3205 Broadway", "Astoria, NY 11106"]}, "phone": "+17187260819", "display_phone": "(718) 726-0819", "distance": 8584.157317648962}, {"id": "wen-gee-house-new-york", "name": "Wen Gee House", "image_url": "https://s3-media3.fl.yelpcdn.com/bphoto/Kx45G37iLFkOAPFG8FoGfw/o.jpg", "is_closed": false, "url": "https://www.yelp.com/biz/wen-gee-house-new-york?adjust_creative=pY8zJUWQtPjP9LVSrcR4eg&utm_campaign=yelp_api_v3&utm_medium=api_v3_business_search&utm_source=pY8zJUWQtPjP9LVSrcR4eg", "review_count": 11, "categories": [{"alias": "chinese", "title": "Chinese"}], "rating": 3.5, "coordinates": {"latitude": 40.678898, "longitude": -74.010712}, "transactions": [], "price": "$", "location": {"address1": "287 Van Brunt St", "address2": "", "address3": "", "city": "New York", "zip_code": "11231", "country": "US", "state": "NY", "display_address": ["287 Van Brunt St", "New York, NY 11231"]}, "phone": "+17185227246", "display_phone": "(718) 522-7246", "distance": 3260.3797390965397}, {"id": "ho-wah-chinese-restaurant-brooklyn", "name": "Ho Wah Chinese Restaurant", "image_url": "https://s3-media3.fl.yelpcdn.com/bphoto/m2gJ_Ksiia4CoooyOcDR5Q/o.jpg", "is_closed": false, "url": "https://www.yelp.com/biz/ho-wah-chinese-restaurant-brooklyn?adjust_creative=pY8zJUWQtPjP9LVSrcR4eg&utm_campaign=yelp_api_v3&utm_medium=api_v3_business_search&utm_source=pY8zJUWQtPjP9LVSrcR4eg", "review_count": 5, "categories": [{"alias": "chinese", "title": "Chinese"}], "rating": 4.0, "coordinates": {"latitude": 40.6870242760585, "longitude": -73.944796100731}, "transactions": [], "price": "$", "location": {"address1": "551 Gates Ave", "address2": "", "address3": "", "city": "Brooklyn", "zip_code": "11216", "country": "US", "state": "NY", "display_address": ["551 Gates Ave", "Brooklyn, NY 11216"]}, "phone": "+17183990110", "display_phone": "(718) 399-0110", "distance": 4648.471278404129}, {"id": "savour-sichuan-new-york", "name": "Savour Sichuan", "image_url": "https://s3-media1.fl.yelpcdn.com/bphoto/qGBC9-lzJfco4QWXuAVvmg/o.jpg", "is_closed": false, "url": "https://www.yelp.com/biz/savour-sichuan-new-york?adjust_creative=pY8zJUWQtPjP9LVSrcR4eg&utm_campaign=yelp_api_v3&utm_medium=api_v3_business_search&utm_source=pY8zJUWQtPjP9LVSrcR4eg", "review_count": 154, "categories": [{"alias": "szechuan", "title": "Szechuan"}, {"alias": "dimsum", "title": "Dim Sum"}, {"alias": "asianfusion", "title": "Asian Fusion"}], "rating": 3.5, "coordinates": {"latitude": 40.75311, "longitude": -73.98614}, "transactions": ["delivery", "pickup", "restaurant_reservation"], "price": "$$", "location": {"address1": "108 W 39th St", "address2": "", "address3": "", "city": "New York", "zip_code": "10018", "country": "US", "state": "NY", "display_address": ["108 W 39th St", "New York, NY 10018"]}, "phone": "+12122217237", "display_phone": "(212) 221-7237", "distance": 5330.316583018416}, {"id": "pearl-garden-whitestone", "name": "Pearl Garden", "image_url": "https://s3-media3.fl.yelpcdn.com/bphoto/FzjAxHFPJP4prVWv1iZ7Xw/o.jpg", "is_closed": false, "url": "https://www.yelp.com/biz/pearl-garden-whitestone?adjust_creative=pY8zJUWQtPjP9LVSrcR4eg&utm_campaign=yelp_api_v3&utm_medium=api_v3_business_search&utm_source=pY8zJUWQtPjP9LVSrcR4eg", "review_count": 63, "categories": [{"alias": "chinese", "title": "Chinese"}, {"alias": "taiwanese", "title": "Taiwanese"}], "rating": 4.0, "coordinates": {"latitude": 40.786695, "longitude": -73.8219}, "transactions": [], "price": "$", "location": {"address1": "14508 14th Ave", "address2": "", "address3": "", "city": "Whitestone", "zip_code": "11357", "country": "US", "state": "NY", "display_address": ["14508 14th Ave", "Whitestone, NY 11357"]}, "phone": "+17187677854", "display_phone": "(718) 767-7854", "distance": 17104.263235143833}, {"id": "asura-asian-bistro-new-york-4", "name": "Asura Asian Bistro", "image_url": "https://s3-media4.fl.yelpcdn.com/bphoto/I85mpmycsL87qm6fVfkAHg/o.jpg", "is_closed": false, "url": "https://www.yelp.com/biz/asura-asian-bistro-new-york-4?adjust_creative=pY8zJUWQtPjP9LVSrcR4eg&utm_campaign=yelp_api_v3&utm_medium=api_v3_business_search&utm_source=pY8zJUWQtPjP9LVSrcR4eg", "review_count": 266, "categories": [{"alias": "chinese", "title": "Chinese"}, {"alias": "asianfusion", "title": "Asian Fusion"}, {"alias": "bars", "title": "Bars"}], "rating": 3.5, "coordinates": {"latitude": 40.7522492, "longitude": -73.991222}, "transactions": ["delivery", "pickup"], "price": "$$", "location": {"address1": "235 W 35th St", "address2": "", "address3": "", "city": "New York", "zip_code": "10001", "country": "US", "state": "NY", "display_address": ["235 W 35th St", "New York, NY 10001"]}, "phone": "+12126299888", "display_phone": "(212) 629-9888", "distance": 5210.829256135834}, {"id": "shanghai-asian-cuisine-new-york-2", "name": "Shanghai Asian Cuisine", "image_url": "https://s3-media4.fl.yelpcdn.com/bphoto/9Srx9W-8-Kqy-ttQxYbkig/o.jpg", "is_closed": false, "url": "https://www.yelp.com/biz/shanghai-asian-cuisine-new-york-2?adjust_creative=pY8zJUWQtPjP9LVSrcR4eg&utm_campaign=yelp_api_v3&utm_medium=api_v3_business_search&utm_source=pY8zJUWQtPjP9LVSrcR4eg", "review_count": 393, "categories": [{"alias": "shanghainese", "title": "Shanghainese"}], "rating": 4.0, "coordinates": {"latitude": 40.7159077, "longitude": -73.997383}, "transactions": ["restaurant_reservation", "delivery", "pickup"], "price": "$$", "location": {"address1": "14A Elizabeth St", "address2": "", "address3": "", "city": "New York", "zip_code": "10013", "country": "US", "state": "NY", "display_address": ["14A Elizabeth St", "New York, NY 10013"]}, "phone": "+12129645640", "display_phone": "(212) 964-5640", "distance": 1192.205105898462}, {"id": "jade-chinese-restaurant-kew-gardens", "name": "Jade Chinese Restaurant", "image_url": "https://s3-media3.fl.yelpcdn.com/bphoto/7Ua2WWMn4zxyLTHfZTyWhQ/o.jpg", "is_closed": false, "url": "https://www.yelp.com/biz/jade-chinese-restaurant-kew-gardens?adjust_creative=pY8zJUWQtPjP9LVSrcR4eg&utm_campaign=yelp_api_v3&utm_medium=api_v3_business_search&utm_source=pY8zJUWQtPjP9LVSrcR4eg", "review_count": 40, "categories": [{"alias": "chinese", "title": "Chinese"}], "rating": 4.0, "coordinates": {"latitude": 40.7066192626953, "longitude": -73.8318099975586}, "transactions": [], "price": "$", "location": {"address1": "8159 Lefferts Blvd", "address2": "", "address3": "", "city": "Kew Gardens", "zip_code": "11415", "country": "US", "state": "NY", "display_address": ["8159 Lefferts Blvd", "Kew Gardens, NY 11415"]}, "phone": "+17188051923", "display_phone": "(718) 805-1923", "distance": 13700.961048598409}, {"id": "general-debs-brooklyn", "name": "General Deb's", "image_url": "https://s3-media2.fl.yelpcdn.com/bphoto/61TecNBREVM1XKWjMZqiyw/o.jpg", "is_closed": false, "url": "https://www.yelp.com/biz/general-debs-brooklyn?adjust_creative=pY8zJUWQtPjP9LVSrcR4eg&utm_campaign=yelp_api_v3&utm_medium=api_v3_business_search&utm_source=pY8zJUWQtPjP9LVSrcR4eg", "review_count": 16, "categories": [{"alias": "chinese", "title": "Chinese"}], "rating": 3.5, "coordinates": {"latitude": 40.7051, "longitude": -73.9252999}, "transactions": [], "location": {"address1": "24 Irving Ave", "address2": "", "address3": null, "city": "Brooklyn", "zip_code": "11237", "country": "US", "state": "NY", "display_address": ["24 Irving Ave", "Brooklyn, NY 11237"]}, "phone": "+17184173300", "display_phone": "(718) 417-3300", "distance": 5814.128645357783}, {"id": "new-jin-shing-brooklyn", "name": "New Jin Shing", "image_url": "https://s3-media1.fl.yelpcdn.com/bphoto/9Py7axGDcAXhhgdhV3nyPQ/o.jpg", "is_closed": false, "url": "https://www.yelp.com/biz/new-jin-shing-brooklyn?adjust_creative=pY8zJUWQtPjP9LVSrcR4eg&utm_campaign=yelp_api_v3&utm_medium=api_v3_business_search&utm_source=pY8zJUWQtPjP9LVSrcR4eg", "review_count": 23, "categories": [{"alias": "chinese", "title": "Chinese"}], "rating": 4.0, "coordinates": {"latitude": 40.682073, "longitude": -73.909389}, "transactions": ["delivery", "pickup"], "price": "$", "location": {"address1": "1794 Broadway", "address2": "", "address3": "", "city": "Brooklyn", "zip_code": "11207", "country": "US", "state": "NY", "display_address": ["1794 Broadway", "Brooklyn, NY 11207"]}, "phone": "+17189199559", "display_phone": "(718) 919-9559", "distance": 7615.3116736546335}, {"id": "jiangnan-chinese-cuisine-new-york-4", "name": "Jiangnan Chinese Cuisine", "image_url": "https://s3-media4.fl.yelpcdn.com/bphoto/fOdu1oMk6K_MI3ktCNy2yQ/o.jpg", "is_closed": false, "url": "https://www.yelp.com/biz/jiangnan-chinese-cuisine-new-york-4?adjust_creative=pY8zJUWQtPjP9LVSrcR4eg&utm_campaign=yelp_api_v3&utm_medium=api_v3_business_search&utm_source=pY8zJUWQtPjP9LVSrcR4eg", "review_count": 13, "categories": [{"alias": "chinese", "title": "Chinese"}], "rating": 3.5, "coordinates": {"latitude": 40.70838, "longitude": -74.01408}, "transactions": ["delivery", "pickup"], "price": "$$", "location": {"address1": "103 Washington St", "address2": "Fl 2", "address3": null, "city": "New York", "zip_code": "10006", "country": "US", "state": "NY", "display_address": ["103 Washington St", "Fl 2", "New York, NY 10006"]}, "phone": "+12129622096", "display_phone": "(212) 962-2096", "distance": 1696.6769742492977}, {"id": "little-pepper-college-point", "name": "Little Pepper", "image_url": "https://s3-media2.fl.yelpcdn.com/bphoto/HAEvcGecvOK_CiG7LHhbDw/o.jpg", "is_closed": false, "url": "https://www.yelp.com/biz/little-pepper-college-point?adjust_creative=pY8zJUWQtPjP9LVSrcR4eg&utm_campaign=yelp_api_v3&utm_medium=api_v3_business_search&utm_source=pY8zJUWQtPjP9LVSrcR4eg", "review_count": 239, "categories": [{"alias": "szechuan", "title": "Szechuan"}], "rating": 4.0, "coordinates": {"latitude": 40.78245, "longitude": -73.84618}, "transactions": [], "price": "$$", "location": {"address1": "18-24 College Point Blvd", "address2": "", "address3": "", "city": "College Point", "zip_code": "11356", "country": "US", "state": "NY", "display_address": ["18-24 College Point Blvd", "College Point, NY 11356"]}, "phone": "+17189397788", "display_phone": "(718) 939-7788", "distance": 15144.274705929723}, {"id": "shu-han-ju-ii-new-york-2", "name": "Shu Han Ju II", "image_url": "https://s3-media3.fl.yelpcdn.com/bphoto/eCcx0ay5TvUJPTaWzhfiMA/o.jpg", "is_closed": false, "url": "https://www.yelp.com/biz/shu-han-ju-ii-new-york-2?adjust_creative=pY8zJUWQtPjP9LVSrcR4eg&utm_campaign=yelp_api_v3&utm_medium=api_v3_business_search&utm_source=pY8zJUWQtPjP9LVSrcR4eg", "review_count": 54, "categories": [{"alias": "szechuan", "title": "Szechuan"}, {"alias": "seafood", "title": "Seafood"}], "rating": 4.0, "coordinates": {"latitude": 40.73117, "longitude": -73.98909}, "transactions": ["delivery", "pickup"], "price": "$$", "location": {"address1": "58 3rd Ave", "address2": null, "address3": "", "city": "New York", "zip_code": "10003", "country": "US", "state": "NY", "display_address": ["58 3rd Ave", "New York, NY 10003"]}, "phone": "+12123588898", "display_phone": "(212) 358-8898", "distance": 2893.8093821026337}, {"id": "chinese-musician-restaurant-brooklyn", "name": "Chinese Musician Restaurant", "image_url": "https://s3-media1.fl.yelpcdn.com/bphoto/YdBqQnwVUTZbWqJxSw_zjg/o.jpg", "is_closed": false, "url": "https://www.yelp.com/biz/chinese-musician-restaurant-brooklyn?adjust_creative=pY8zJUWQtPjP9LVSrcR4eg&utm_campaign=yelp_api_v3&utm_medium=api_v3_business_search&utm_source=pY8zJUWQtPjP9LVSrcR4eg", "review_count": 105, "categories": [{"alias": "chinese", "title": "Chinese"}], "rating": 3.0, "coordinates": {"latitude": 40.7303597, "longitude": -73.9537321}, "transactions": ["delivery", "pickup"], "price": "$", "location": {"address1": "151 Greenpoint Ave", "address2": null, "address3": "", "city": "Brooklyn", "zip_code": "11222", "country": "US", "state": "NY", "display_address": ["151 Greenpoint Ave", "Brooklyn, NY 11222"]}, "phone": "+17183832413", "display_phone": "(718) 383-2413", "distance": 4400.070782057622}, {"id": "homes-kitchen-chinese-restaurant-new-york-2", "name": "Home's Kitchen Chinese Restaurant", "image_url": "https://s3-media2.fl.yelpcdn.com/bphoto/dFRIBaSeebCGC6ObJe5emQ/o.jpg", "is_closed": false, "url": "https://www.yelp.com/biz/homes-kitchen-chinese-restaurant-new-york-2?adjust_creative=pY8zJUWQtPjP9LVSrcR4eg&utm_campaign=yelp_api_v3&utm_medium=api_v3_business_search&utm_source=pY8zJUWQtPjP9LVSrcR4eg", "review_count": 159, "categories": [{"alias": "chinese", "title": "Chinese"}, {"alias": "seafood", "title": "Seafood"}], "rating": 3.5, "coordinates": {"latitude": 40.73944, "longitude": -73.98913}, "transactions": ["delivery", "pickup"], "price": "$$", "location": {"address1": "22 E 21st St", "address2": "", "address3": "", "city": "New York", "zip_code": "10010", "country": "US", "state": "NY", "display_address": ["22 E 21st St", "New York, NY 10010"]}, "phone": "+12124755049", "display_phone": "(212) 475-5049", "distance": 3804.683046678912}, {"id": "hing-won-new-york", "name": "Hing Won", "image_url": "https://s3-media2.fl.yelpcdn.com/bphoto/yBFSKcYxuggWrT1krEXlew/o.jpg", "is_closed": false, "url": "https://www.yelp.com/biz/hing-won-new-york?adjust_creative=pY8zJUWQtPjP9LVSrcR4eg&utm_campaign=yelp_api_v3&utm_medium=api_v3_business_search&utm_source=pY8zJUWQtPjP9LVSrcR4eg", "review_count": 178, "categories": [{"alias": "cantonese", "title": "Cantonese"}], "rating": 3.5, "coordinates": {"latitude": 40.75809, "longitude": -73.98026}, "transactions": ["delivery", "pickup"], "price": "$", "location": {"address1": "48 W 48th St", "address2": "", "address3": "", "city": "New York", "zip_code": "10036", "country": "US", "state": "NY", "display_address": ["48 W 48th St", "New York, NY 10036"]}, "phone": "+12127191451", "display_phone": "(212) 719-1451", "distance": 5958.754268915914}, {"id": "lucky-garden-brooklyn", "name": "Lucky Garden", "image_url": "https://s3-media1.fl.yelpcdn.com/bphoto/RlN1mxdWBcsML3OZKGbLWQ/o.jpg", "is_closed": false, "url": "https://www.yelp.com/biz/lucky-garden-brooklyn?adjust_creative=pY8zJUWQtPjP9LVSrcR4eg&utm_campaign=yelp_api_v3&utm_medium=api_v3_business_search&utm_source=pY8zJUWQtPjP9LVSrcR4eg", "review_count": 15, "categories": [{"alias": "chinese", "title": "Chinese"}], "rating": 4.0, "coordinates": {"latitude": 40.624759, "longitude": -73.946823}, "transactions": ["delivery", "pickup"], "location": {"address1": "2460 Nostrand Ave", "address2": "", "address3": "", "city": "Brooklyn", "zip_code": "11210", "country": "US", "state": "NY", "display_address": ["2460 Nostrand Ave", "Brooklyn, NY 11210"]}, "phone": "+17183381666", "display_phone": "(718) 338-1666", "distance": 9821.101307248508}, {"id": "lan-sheng-restaurant-new-york", "name": "Lan Sheng Restaurant", "image_url": "https://s3-media3.fl.yelpcdn.com/bphoto/EhcaQ3bmOpV4ZvHfQxKntg/o.jpg", "is_closed": false, "url": "https://www.yelp.com/biz/lan-sheng-restaurant-new-york?adjust_creative=pY8zJUWQtPjP9LVSrcR4eg&utm_campaign=yelp_api_v3&utm_medium=api_v3_business_search&utm_source=pY8zJUWQtPjP9LVSrcR4eg", "review_count": 48, "categories": [{"alias": "chinese", "title": "Chinese"}], "rating": 3.5, "coordinates": {"latitude": 40.7517141867087, "longitude": -73.9883603449123}, "transactions": ["delivery", "pickup"], "price": "$$", "location": {"address1": "128 W 36th St", "address2": null, "address3": "", "city": "New York", "zip_code": "10018", "country": "US", "state": "NY", "display_address": ["128 W 36th St", "New York, NY 10018"]}, "phone": "+12125758899", "display_phone": "(212) 575-8899", "distance": 5169.140151558014}, {"id": "szechuan-delight-restaurant-brooklyn", "name": "Szechuan Delight Restaurant", "image_url": "https://s3-media2.fl.yelpcdn.com/bphoto/BNQtPrXg_84VcRFcPP39qg/o.jpg", "is_closed": false, "url": "https://www.yelp.com/biz/szechuan-delight-restaurant-brooklyn?adjust_creative=pY8zJUWQtPjP9LVSrcR4eg&utm_campaign=yelp_api_v3&utm_medium=api_v3_business_search&utm_source=pY8zJUWQtPjP9LVSrcR4eg", "review_count": 87, "categories": [{"alias": "chinese", "title": "Chinese"}], "rating": 3.0, "coordinates": {"latitude": 40.6725807189941, "longitude": -73.977165222168}, "transactions": ["delivery", "pickup"], "price": "$$", "location": {"address1": "152 7th Ave", "address2": "", "address3": "", "city": "Brooklyn", "zip_code": "11215", "country": "US", "state": "NY", "display_address": ["152 7th Ave", "Brooklyn, NY 11215"]}, "phone": "+17187885408", "display_phone": "(718) 788-5408", "distance": 3930.6212251415154}, {"id": "saw-shack-jackson-heights", "name": "Saw Shack", "image_url": "https://s3-media1.fl.yelpcdn.com/bphoto/mm_C1dPRz_aoroIwugvw4w/o.jpg", "is_closed": false, "url": "https://www.yelp.com/biz/saw-shack-jackson-heights?adjust_creative=pY8zJUWQtPjP9LVSrcR4eg&utm_campaign=yelp_api_v3&utm_medium=api_v3_business_search&utm_source=pY8zJUWQtPjP9LVSrcR4eg", "review_count": 141, "categories": [{"alias": "chinese", "title": "Chinese"}], "rating": 3.5, "coordinates": {"latitude": 40.7499285042286, "longitude": -73.8821339607239}, "transactions": ["delivery", "pickup"], "price": "$", "location": {"address1": "84-22 37th Ave", "address2": null, "address3": "", "city": "Jackson Heights", "zip_code": "11372", "country": "US", "state": "NY", "display_address": ["84-22 37th Ave", "Jackson Heights, NY 11372"]}, "phone": "+17188982768", "display_phone": "(718) 898-2768", "distance": 10675.902177115679}, {"id": "xian-famous-foods-new-york-8", "name": "Xi'an Famous Foods", "image_url": "https://s3-media1.fl.yelpcdn.com/bphoto/F3KLTt7FJrQZ8vMbRoeo7Q/o.jpg", "is_closed": false, "url": "https://www.yelp.com/biz/xian-famous-foods-new-york-8?adjust_creative=pY8zJUWQtPjP9LVSrcR4eg&utm_campaign=yelp_api_v3&utm_medium=api_v3_business_search&utm_source=pY8zJUWQtPjP9LVSrcR4eg", "review_count": 298, "categories": [{"alias": "chinese", "title": "Chinese"}, {"alias": "noodles", "title": "Noodles"}, {"alias": "burgers", "title": "Burgers"}], "rating": 4.0, "coordinates": {"latitude": 40.79847, "longitude": -73.96934}, "transactions": [], "price": "$", "location": {"address1": "2675 Broadway", "address2": "", "address3": "", "city": "New York", "zip_code": "10025", "country": "US", "state": "NY", "display_address": ["2675 Broadway", "New York, NY 10025"]}, "phone": "", "display_phone": "", "distance": 10558.386468760496}, {"id": "lotus-express-manhattan", "name": "Lotus Express", "image_url": "https://s3-media2.fl.yelpcdn.com/bphoto/RuSp1V0368F4CdammBsJKQ/o.jpg", "is_closed": false, "url": "https://www.yelp.com/biz/lotus-express-manhattan?adjust_creative=pY8zJUWQtPjP9LVSrcR4eg&utm_campaign=yelp_api_v3&utm_medium=api_v3_business_search&utm_source=pY8zJUWQtPjP9LVSrcR4eg", "review_count": 42, "categories": [{"alias": "chinese", "title": "Chinese"}], "rating": 4.0, "coordinates": {"latitude": 40.8662643432617, "longitude": -73.9245986938477}, "transactions": ["delivery", "pickup"], "price": "$", "location": {"address1": "4840 Broadway", "address2": "", "address3": "", "city": "Manhattan", "zip_code": "10034", "country": "US", "state": "NY", "display_address": ["4840 Broadway", "Manhattan, NY 10034"]}, "phone": "+12125698899", "display_phone": "(212) 569-8899", "distance": 18815.498398168475}, {"id": "new-star-brooklyn", "name": "New Star", "image_url": "https://s3-media3.fl.yelpcdn.com/bphoto/u-TNcteZ6y9NQjwoCJ397Q/o.jpg", "is_closed": false, "url": "https://www.yelp.com/biz/new-star-brooklyn?adjust_creative=pY8zJUWQtPjP9LVSrcR4eg&utm_campaign=yelp_api_v3&utm_medium=api_v3_business_search&utm_source=pY8zJUWQtPjP9LVSrcR4eg", "review_count": 35, "categories": [{"alias": "chinese", "title": "Chinese"}], "rating": 3.5, "coordinates": {"latitude": 40.592772, "longitude": -73.947705}, "transactions": ["delivery", "pickup"], "price": "$", "location": {"address1": "2212 Ave X", "address2": "", "address3": "", "city": "Brooklyn", "zip_code": "11235", "country": "US", "state": "NY", "display_address": ["2212 Ave X", "Brooklyn, NY 11235"]}, "phone": "+17188916868", "display_phone": "(718) 891-6868", "distance": 13130.952741330799}, {"id": "m-shanghai-bistro-and-garden-brooklyn", "name": "M Shanghai Bistro & Garden", "image_url": "https://s3-media3.fl.yelpcdn.com/bphoto/4EmC7tunyyxo2qjQ7trfmw/o.jpg", "is_closed": false, "url": "https://www.yelp.com/biz/m-shanghai-bistro-and-garden-brooklyn?adjust_creative=pY8zJUWQtPjP9LVSrcR4eg&utm_campaign=yelp_api_v3&utm_medium=api_v3_business_search&utm_source=pY8zJUWQtPjP9LVSrcR4eg", "review_count": 387, "categories": [{"alias": "shanghainese", "title": "Shanghainese"}, {"alias": "szechuan", "title": "Szechuan"}, {"alias": "dimsum", "title": "Dim Sum"}], "rating": 3.5, "coordinates": {"latitude": 40.71285, "longitude": -73.95762}, "transactions": ["delivery", "pickup"], "price": "$$", "location": {"address1": "292 Grand St", "address2": null, "address3": "", "city": "Brooklyn", "zip_code": "11211", "country": "US", "state": "NY", "display_address": ["292 Grand St", "Brooklyn, NY 11211"]}, "phone": "+17183849300", "display_phone": "(718) 384-9300", "distance": 3198.3065683166997}, {"id": "asia-express-new-york-2", "name": "Asia Express", "image_url": "https://s3-media3.fl.yelpcdn.com/bphoto/u7nq5BZGjBfnRew_dRfIbA/o.jpg", "is_closed": false, "url": "https://www.yelp.com/biz/asia-express-new-york-2?adjust_creative=pY8zJUWQtPjP9LVSrcR4eg&utm_campaign=yelp_api_v3&utm_medium=api_v3_business_search&utm_source=pY8zJUWQtPjP9LVSrcR4eg", "review_count": 50, "categories": [{"alias": "chinese", "title": "Chinese"}], "rating": 3.5, "coordinates": {"latitude": 40.741, "longitude": -73.97906}, "transactions": ["delivery", "pickup"], "price": "$", "location": {"address1": "493 2nd Ave", "address2": "", "address3": "", "city": "New York", "zip_code": "10016", "country": "US", "state": "NY", "display_address": ["493 2nd Ave", "New York, NY 10016"]}, "phone": "+12126869888", "display_phone": "(212) 686-9888", "distance": 4155.588496724244}, {"id": "la-vie-en-szechuan-new-york-2", "name": "La Vie en Szechuan", "image_url": "https://s3-media3.fl.yelpcdn.com/bphoto/ce7gGr3o71kMGvvgZw-i8Q/o.jpg", "is_closed": false, "url": "https://www.yelp.com/biz/la-vie-en-szechuan-new-york-2?adjust_creative=pY8zJUWQtPjP9LVSrcR4eg&utm_campaign=yelp_api_v3&utm_medium=api_v3_business_search&utm_source=pY8zJUWQtPjP9LVSrcR4eg", "review_count": 380, "categories": [{"alias": "szechuan", "title": "Szechuan"}], "rating": 3.5, "coordinates": {"latitude": 40.7473584983999, "longitude": -73.9843980932541}, "transactions": ["delivery", "pickup", "restaurant_reservation"], "price": "$$", "location": {"address1": "14 E 33rd St", "address2": null, "address3": "", "city": "New York", "zip_code": "10016", "country": "US", "state": "NY", "display_address": ["14 E 33rd St", "New York, NY 10016"]}, "phone": "+12126832779", "display_phone": "(212) 683-2779", "distance": 4734.5822036894715}, {"id": "ollies-sichuan-new-york", "name": "Ollie's Sichuan", "image_url": "https://s3-media4.fl.yelpcdn.com/bphoto/afFEHZQf5-ejjfG27nM-mA/o.jpg", "is_closed": false, "url": "https://www.yelp.com/biz/ollies-sichuan-new-york?adjust_creative=pY8zJUWQtPjP9LVSrcR4eg&utm_campaign=yelp_api_v3&utm_medium=api_v3_business_search&utm_source=pY8zJUWQtPjP9LVSrcR4eg", "review_count": 410, "categories": [{"alias": "szechuan", "title": "Szechuan"}], "rating": 3.0, "coordinates": {"latitude": 40.75884, "longitude": -73.99319}, "transactions": ["delivery", "pickup"], "price": "$$", "location": {"address1": "411 W 42nd St", "address2": "", "address3": "", "city": "New York", "zip_code": "10036", "country": "US", "state": "NY", "display_address": ["411 W 42nd St", "New York, NY 10036"]}, "phone": "+12128686588", "display_phone": "(212) 868-6588", "distance": 5950.762023348823}, {"id": "best-fuzhou-restaurant-new-york", "name": "Best Fuzhou Restaurant", "image_url": "https://s3-media2.fl.yelpcdn.com/bphoto/i0y7i12HHu0U7iipDXqrDQ/o.jpg", "is_closed": false, "url": "https://www.yelp.com/biz/best-fuzhou-restaurant-new-york?adjust_creative=pY8zJUWQtPjP9LVSrcR4eg&utm_campaign=yelp_api_v3&utm_medium=api_v3_business_search&utm_source=pY8zJUWQtPjP9LVSrcR4eg", "review_count": 4, "categories": [{"alias": "chinese", "title": "Chinese"}], "rating": 5.0, "coordinates": {"latitude": 40.7167625427246, "longitude": -73.9927978515625}, "transactions": [], "location": {"address1": "71A Eldridge St", "address2": "", "address3": "", "city": "New York", "zip_code": "10002", "country": "US", "state": "NY", "display_address": ["71A Eldridge St", "New York, NY 10002"]}, "phone": "+12122193328", "display_phone": "(212) 219-3328", "distance": 1264.762825509854}, {"id": "lucky-eight-brooklyn-2", "name": "Lucky Eight", "image_url": "https://s3-media3.fl.yelpcdn.com/bphoto/ObBlSnmDL82eZOP-t4Dh1w/o.jpg", "is_closed": false, "url": "https://www.yelp.com/biz/lucky-eight-brooklyn-2?adjust_creative=pY8zJUWQtPjP9LVSrcR4eg&utm_campaign=yelp_api_v3&utm_medium=api_v3_business_search&utm_source=pY8zJUWQtPjP9LVSrcR4eg", "review_count": 183, "categories": [{"alias": "cantonese", "title": "Cantonese"}, {"alias": "bbq", "title": "Barbeque"}], "rating": 3.5, "coordinates": {"latitude": 40.639961, "longitude": -74.00509}, "transactions": [], "price": "$$", "location": {"address1": "5204 8th Ave", "address2": null, "address3": "", "city": "Brooklyn", "zip_code": "11220", "country": "US", "state": "NY", "display_address": ["5204 8th Ave", "Brooklyn, NY 11220"]}, "phone": "+17188518862", "display_phone": "(718) 851-8862", "distance": 7338.176683425652}, {"id": "junzi-kitchen-new-york", "name": "Junzi Kitchen", "image_url": "https://s3-media1.fl.yelpcdn.com/bphoto/jML_mp_9tSK93fWavfvKrQ/o.jpg", "is_closed": false, "url": "https://www.yelp.com/biz/junzi-kitchen-new-york?adjust_creative=pY8zJUWQtPjP9LVSrcR4eg&utm_campaign=yelp_api_v3&utm_medium=api_v3_business_search&utm_source=pY8zJUWQtPjP9LVSrcR4eg", "review_count": 86, "categories": [{"alias": "chinese", "title": "Chinese"}, {"alias": "noodles", "title": "Noodles"}, {"alias": "tea", "title": "Tea Rooms"}], "rating": 4.0, "coordinates": {"latitude": 40.8057641877461, "longitude": -73.9652019005902}, "transactions": ["delivery", "pickup"], "price": "$$", "location": {"address1": "2896 Broadway", "address2": null, "address3": "", "city": "New York", "zip_code": "10025", "country": "US", "state": "NY", "display_address": ["2896 Broadway", "New York, NY 10025"]}, "phone": "+19172612497", "display_phone": "(917) 261-2497", "distance": 11420.94727033307}, {"id": "bamboo-express-brooklyn", "name": "Bamboo Express", "image_url": "https://s3-media4.fl.yelpcdn.com/bphoto/fyhFOzqNfJjRys35pcsQMA/o.jpg", "is_closed": false, "url": "https://www.yelp.com/biz/bamboo-express-brooklyn?adjust_creative=pY8zJUWQtPjP9LVSrcR4eg&utm_campaign=yelp_api_v3&utm_medium=api_v3_business_search&utm_source=pY8zJUWQtPjP9LVSrcR4eg", "review_count": 22, "categories": [{"alias": "chinese", "title": "Chinese"}, {"alias": "caribbean", "title": "Caribbean"}], "rating": 4.0, "coordinates": {"latitude": 40.65398, "longitude": -73.9597}, "transactions": [], "price": "$$", "location": {"address1": "772 Flatbush Ave", "address2": "Ste A", "address3": "", "city": "Brooklyn", "zip_code": "11226", "country": "US", "state": "NY", "display_address": ["772 Flatbush Ave", "Ste A", "Brooklyn, NY 11226"]}, "phone": "+17184690117", "display_phone": "(718) 469-0117", "distance": 6426.311765188453}, {"id": "hakkasan-new-york", "name": "Hakkasan", "image_url": "https://s3-media4.fl.yelpcdn.com/bphoto/dQLq-Mg9HRkTyg-pl2iJnQ/o.jpg", "is_closed": false, "url": "https://www.yelp.com/biz/hakkasan-new-york?adjust_creative=pY8zJUWQtPjP9LVSrcR4eg&utm_campaign=yelp_api_v3&utm_medium=api_v3_business_search&utm_source=pY8zJUWQtPjP9LVSrcR4eg", "review_count": 727, "categories": [{"alias": "chinese", "title": "Chinese"}], "rating": 3.5, "coordinates": {"latitude": 40.758619, "longitude": -73.989961}, "transactions": [], "price": "$$$$", "location": {"address1": "311 W 43rd St", "address2": "", "address3": "", "city": "New York", "zip_code": "10036", "country": "US", "state": "NY", "display_address": ["311 W 43rd St", "New York, NY 10036"]}, "phone": "+12127761818", "display_phone": "(212) 776-1818", "distance": 5923.94485690885}, {"id": "asian-garden-jamaica", "name": "Asian Garden", "image_url": "https://s3-media2.fl.yelpcdn.com/bphoto/KKA1JxFYGqDT1u2QD8aXCg/o.jpg", "is_closed": false, "url": "https://www.yelp.com/biz/asian-garden-jamaica?adjust_creative=pY8zJUWQtPjP9LVSrcR4eg&utm_campaign=yelp_api_v3&utm_medium=api_v3_business_search&utm_source=pY8zJUWQtPjP9LVSrcR4eg", "review_count": 14, "categories": [{"alias": "japanese", "title": "Japanese"}, {"alias": "thai", "title": "Thai"}, {"alias": "chinese", "title": "Chinese"}], "rating": 4.5, "coordinates": {"latitude": 40.6925863273397, "longitude": -73.8603101670742}, "transactions": ["delivery", "pickup"], "price": "$$", "location": {"address1": "84-17 Jamaica Ave", "address2": "", "address3": "", "city": "Jamaica", "zip_code": "11421", "country": "US", "state": "NY", "display_address": ["84-17 Jamaica Ave", "Jamaica, NY 11421"]}, "phone": "+17188053636", "display_phone": "(718) 805-3636", "distance": 11385.154239052177}, {"id": "la-salle-dumpling-room-new-york", "name": "La Salle Dumpling Room", "image_url": "https://s3-media2.fl.yelpcdn.com/bphoto/fYtNliCFcREcQ0AkcykBqw/o.jpg", "is_closed": false, "url": "https://www.yelp.com/biz/la-salle-dumpling-room-new-york?adjust_creative=pY8zJUWQtPjP9LVSrcR4eg&utm_campaign=yelp_api_v3&utm_medium=api_v3_business_search&utm_source=pY8zJUWQtPjP9LVSrcR4eg", "review_count": 139, "categories": [{"alias": "asianfusion", "title": "Asian Fusion"}, {"alias": "chinese", "title": "Chinese"}], "rating": 4.0, "coordinates": {"latitude": 40.81403, "longitude": -73.95983}, "transactions": ["delivery", "pickup"], "price": "$$", "location": {"address1": "3141 Broadway", "address2": null, "address3": "", "city": "New York", "zip_code": "10027", "country": "US", "state": "NY", "display_address": ["3141 Broadway", "New York, NY 10027"]}, "phone": "+12129610300", "display_phone": "(212) 961-0300", "distance": 12421.049555075295}, {"id": "lee-good-taste-brooklyn", "name": "Lee Good Taste", "image_url": "https://s3-media4.fl.yelpcdn.com/bphoto/zTDWX_hSFgE4k2IoJ5m8yw/o.jpg", "is_closed": false, "url": "https://www.yelp.com/biz/lee-good-taste-brooklyn?adjust_creative=pY8zJUWQtPjP9LVSrcR4eg&utm_campaign=yelp_api_v3&utm_medium=api_v3_business_search&utm_source=pY8zJUWQtPjP9LVSrcR4eg", "review_count": 10, "categories": [{"alias": "chinese", "title": "Chinese"}], "rating": 4.5, "coordinates": {"latitude": 40.6751870148044, "longitude": -73.8729380071163}, "transactions": [], "price": "$", "location": {"address1": "2686 Pitkin Ave", "address2": "", "address3": "", "city": "Brooklyn", "zip_code": "11208", "country": "US", "state": "NY", "display_address": ["2686 Pitkin Ave", "Brooklyn, NY 11208"]}, "phone": "+17183480538", "display_phone": "(718) 348-0538", "distance": 10770.78204232809}, {"id": "the-handpulled-noodle-new-york", "name": "The Handpulled Noodle", "image_url": "https://s3-media4.fl.yelpcdn.com/bphoto/1YoeaYCg8e5F1G7gaFODDw/o.jpg", "is_closed": false, "url": "https://www.yelp.com/biz/the-handpulled-noodle-new-york?adjust_creative=pY8zJUWQtPjP9LVSrcR4eg&utm_campaign=yelp_api_v3&utm_medium=api_v3_business_search&utm_source=pY8zJUWQtPjP9LVSrcR4eg", "review_count": 465, "categories": [{"alias": "chinese", "title": "Chinese"}, {"alias": "noodles", "title": "Noodles"}, {"alias": "vegan", "title": "Vegan"}], "rating": 4.0, "coordinates": {"latitude": 40.82839, "longitude": -73.9487}, "transactions": ["pickup", "delivery"], "price": "$$", "location": {"address1": "3600 Broadway", "address2": null, "address3": "", "city": "New York", "zip_code": "10031", "country": "US", "state": "NY", "display_address": ["3600 Broadway", "New York, NY 10031"]}, "phone": "+19172620213", "display_phone": "(917) 262-0213", "distance": 14197.131622579926}, {"id": "red-bowl-brooklyn", "name": "Red Bowl", "image_url": "https://s3-media1.fl.yelpcdn.com/bphoto/jjw7p1XM92Xwmiz1EnGaJw/o.jpg", "is_closed": false, "url": "https://www.yelp.com/biz/red-bowl-brooklyn?adjust_creative=pY8zJUWQtPjP9LVSrcR4eg&utm_campaign=yelp_api_v3&utm_medium=api_v3_business_search&utm_source=pY8zJUWQtPjP9LVSrcR4eg", "review_count": 228, "categories": [{"alias": "chinese", "title": "Chinese"}], "rating": 3.5, "coordinates": {"latitude": 40.7170493866292, "longitude": -73.958762175149}, "transactions": ["delivery", "pickup"], "price": "$$", "location": {"address1": "208 Bedford Ave", "address2": "", "address3": "", "city": "Brooklyn", "zip_code": "11211", "country": "US", "state": "NY", "display_address": ["208 Bedford Ave", "Brooklyn, NY 11211"]}, "phone": "+17183888898", "display_phone": "(718) 388-8898", "distance": 3260.943765612878}, {"id": "ho-may-kitchen-brooklyn", "name": "Ho May Kitchen", "image_url": "https://s3-media3.fl.yelpcdn.com/bphoto/VyF1sUfaC1kJP_IfHCkZAg/o.jpg", "is_closed": false, "url": "https://www.yelp.com/biz/ho-may-kitchen-brooklyn?adjust_creative=pY8zJUWQtPjP9LVSrcR4eg&utm_campaign=yelp_api_v3&utm_medium=api_v3_business_search&utm_source=pY8zJUWQtPjP9LVSrcR4eg", "review_count": 11, "categories": [{"alias": "chinese", "title": "Chinese"}], "rating": 4.0, "coordinates": {"latitude": 40.7186, "longitude": -73.94072}, "transactions": [], "location": {"address1": "100 Woodpoint Rd", "address2": "", "address3": "", "city": "Brooklyn", "zip_code": "11211", "country": "US", "state": "NY", "display_address": ["100 Woodpoint Rd", "Brooklyn, NY 11211"]}, "phone": "+17183899788", "display_phone": "(718) 389-9788", "distance": 4737.975091686726}, {"id": "wans-garden-ridgewood", "name": "Wan's Garden", "image_url": "https://s3-media2.fl.yelpcdn.com/bphoto/qCOm1Qhn4uCu9WSWDyBZPQ/o.jpg", "is_closed": false, "url": "https://www.yelp.com/biz/wans-garden-ridgewood?adjust_creative=pY8zJUWQtPjP9LVSrcR4eg&utm_campaign=yelp_api_v3&utm_medium=api_v3_business_search&utm_source=pY8zJUWQtPjP9LVSrcR4eg", "review_count": 17, "categories": [{"alias": "chinese", "title": "Chinese"}], "rating": 4.0, "coordinates": {"latitude": 40.702864, "longitude": -73.901421}, "transactions": [], "price": "$", "location": {"address1": "6826 Forest Ave", "address2": "", "address3": "", "city": "Ridgewood", "zip_code": "11385", "country": "US", "state": "NY", "display_address": ["6826 Forest Ave", "Ridgewood, NY 11385"]}, "phone": "+17183811176", "display_phone": "(718) 381-1176", "distance": 7833.63360813702}, {"id": "super-taste-new-york", "name": "Super Taste", "image_url": "https://s3-media4.fl.yelpcdn.com/bphoto/LQ3umWonh7l4rRO3O1VNKQ/o.jpg", "is_closed": false, "url": "https://www.yelp.com/biz/super-taste-new-york?adjust_creative=pY8zJUWQtPjP9LVSrcR4eg&utm_campaign=yelp_api_v3&utm_medium=api_v3_business_search&utm_source=pY8zJUWQtPjP9LVSrcR4eg", "review_count": 451, "categories": [{"alias": "chinese", "title": "Chinese"}, {"alias": "noodles", "title": "Noodles"}], "rating": 4.0, "coordinates": {"latitude": 40.71511, "longitude": -73.99332}, "transactions": [], "price": "$", "location": {"address1": "26 Eldridge St", "address2": null, "address3": "", "city": "New York", "zip_code": "10002", "country": "US", "state": "NY", "display_address": ["26 Eldridge St", "New York, NY 10002"]}, "phone": "+16462830999", "display_phone": "(646) 283-0999", "distance": 1073.1155330295699}, {"id": "fu-run-dong-bei-flushing-2", "name": "Fu Run Dong Bei", "image_url": "https://s3-media2.fl.yelpcdn.com/bphoto/18AqJd-ZpvFf-NAbdEOv7w/o.jpg", "is_closed": false, "url": "https://www.yelp.com/biz/fu-run-dong-bei-flushing-2?adjust_creative=pY8zJUWQtPjP9LVSrcR4eg&utm_campaign=yelp_api_v3&utm_medium=api_v3_business_search&utm_source=pY8zJUWQtPjP9LVSrcR4eg", "review_count": 395, "categories": [{"alias": "chinese", "title": "Chinese"}], "rating": 4.0, "coordinates": {"latitude": 40.758782, "longitude": -73.831712}, "transactions": ["delivery", "pickup"], "price": "$$", "location": {"address1": "40-09 Prince St", "address2": "", "address3": "", "city": "Flushing", "zip_code": "11354", "country": "US", "state": "NY", "display_address": ["40-09 Prince St", "Flushing, NY 11354"]}, "phone": "+17183211363", "display_phone": "(718) 321-1363", "distance": 14927.804210739965}, {"id": "hot-sichuan-new-york-15", "name": "Hot Sichuan", "image_url": "https://s3-media2.fl.yelpcdn.com/bphoto/vM_SF8NOmTdsKnG-E_oaYQ/o.jpg", "is_closed": false, "url": "https://www.yelp.com/biz/hot-sichuan-new-york-15?adjust_creative=pY8zJUWQtPjP9LVSrcR4eg&utm_campaign=yelp_api_v3&utm_medium=api_v3_business_search&utm_source=pY8zJUWQtPjP9LVSrcR4eg", "review_count": 92, "categories": [{"alias": "chinese", "title": "Chinese"}], "rating": 3.5, "coordinates": {"latitude": 40.74353, "longitude": -74.00326}, "transactions": ["delivery", "pickup", "restaurant_reservation"], "price": "$$", "location": {"address1": "130 9th Ave", "address2": "", "address3": "", "city": "New York", "zip_code": "10011", "country": "US", "state": "NY", "display_address": ["130 9th Ave", "New York, NY 10011"]}, "phone": "+12122558388", "display_phone": "(212) 255-8388", "distance": 4300.274151883054}, {"id": "golden-star-new-york-3", "name": "Golden Star", "image_url": "https://s3-media3.fl.yelpcdn.com/bphoto/Ipm411TlitZQiDog3KnUxw/o.jpg", "is_closed": false, "url": "https://www.yelp.com/biz/golden-star-new-york-3?adjust_creative=pY8zJUWQtPjP9LVSrcR4eg&utm_campaign=yelp_api_v3&utm_medium=api_v3_business_search&utm_source=pY8zJUWQtPjP9LVSrcR4eg", "review_count": 66, "categories": [{"alias": "chinese", "title": "Chinese"}], "rating": 3.5, "coordinates": {"latitude": 40.8498685, "longitude": -73.9362273}, "transactions": ["delivery", "pickup"], "price": "$$", "location": {"address1": "4247 Broadway", "address2": "", "address3": "", "city": "New York", "zip_code": "10033", "country": "US", "state": "NY", "display_address": ["4247 Broadway", "New York, NY 10033"]}, "phone": "+12129285454", "display_phone": "(212) 928-5454", "distance": 16782.057504684122}], "total": 4600, "region": {"center": {"longitude": -73.9942932129, "latitude": 40.7054448644}}}