{"businesses": [{"id": "bombay-heights-brooklyn-2", "name": "Bombay Heights", "image_url": "https://s3-media4.fl.yelpcdn.com/bphoto/mu78Cq2hPJNtekUXNSm_Dw/o.jpg", "is_closed": false, "url": "https://www.yelp.com/biz/bombay-heights-brooklyn-2?adjust_creative=pY8zJUWQtPjP9LVSrcR4eg&utm_campaign=yelp_api_v3&utm_medium=api_v3_business_search&utm_source=pY8zJUWQtPjP9LVSrcR4eg", "review_count": 32, "categories": [{"alias": "indpak", "title": "Indian"}], "rating": 3.5, "coordinates": {"latitude": 40.688221, "longitude": -73.955137}, "transactions": ["delivery", "pickup"], "price": "$$", "location": {"address1": "1070 Bedford Ave", "address2": "", "address3": null, "city": "Brooklyn", "zip_code": "11216", "country": "US", "state": "NY", "display_address": ["1070 Bedford Ave", "Brooklyn, NY 11216"]}, "phone": "+17182307790", "display_phone": "(718) 230-7790", "distance": 3816.7218927028493}, {"id": "namaste-edgewater", "name": "Namaste", "image_url": "https://s3-media4.fl.yelpcdn.com/bphoto/zR4k7oJQLxXQLEUPVv_GfA/o.jpg", "is_closed": false, "url": "https://www.yelp.com/biz/namaste-edgewater?adjust_creative=pY8zJUWQtPjP9LVSrcR4eg&utm_campaign=yelp_api_v3&utm_medium=api_v3_business_search&utm_source=pY8zJUWQtPjP9LVSrcR4eg", "review_count": 192, "categories": [{"alias": "himalayan", "title": "Himalayan/Nepalese"}, {"alias": "indpak", "title": "Indian"}, {"alias": "asianfusion", "title": "Asian Fusion"}], "rating": 4.5, "coordinates": {"latitude": 40.83162, "longitude": -73.9726699}, "transactions": ["delivery", "pickup"], "price": "$$", "location": {"address1": "1086 River Rd", "address2": null, "address3": "", "city": "Edgewater", "zip_code": "07020", "country": "US", "state": "NJ", "display_address": ["1086 River Rd", "Edgewater, NJ 07020"]}, "phone": "+12012248777", "display_phone": "(201) 224-8777", "distance": 14155.578265348304}, {"id": "chote-nawab-new-york", "name": "Chote Nawab", "image_url": "https://s3-media1.fl.yelpcdn.com/bphoto/5P334o9gi9GKAB6GYE1c7Q/o.jpg", "is_closed": false, "url": "https://www.yelp.com/biz/chote-nawab-new-york?adjust_creative=pY8zJUWQtPjP9LVSrcR4eg&utm_campaign=yelp_api_v3&utm_medium=api_v3_business_search&utm_source=pY8zJUWQtPjP9LVSrcR4eg", "review_count": 462, "categories": [{"alias": "indpak", "title": "Indian"}], "rating": 3.5, "coordinates": {"latitude": 40.74246, "longitude": -73.98232}, "transactions": ["delivery", "pickup"], "price": "$$", "location": {"address1": "115 Lexington Ave", "address2": "", "address3": "", "city": "New York", "zip_code": "10016", "country": "US", "state": "NY", "display_address": ["115 Lexington Ave", "New York, NY 10016"]}, "phone": "+12126794603", "display_phone": "(212) 679-4603", "distance": 4237.135044088385}, {"id": "chaiwali-harlem-manhattan", "name": "Chaiwali Harlem", "image_url": "https://s3-media4.fl.yelpcdn.com/bphoto/YtoM7Qyjvj5CNK-UA3teEA/o.jpg", "is_closed": false, "url": "https://www.yelp.com/biz/chaiwali-harlem-manhattan?adjust_creative=pY8zJUWQtPjP9LVSrcR4eg&utm_campaign=yelp_api_v3&utm_medium=api_v3_business_search&utm_source=pY8zJUWQtPjP9LVSrcR4eg", "review_count": 184, "categories": [{"alias": "indpak", "title": "Indian"}, {"alias": "breakfast_brunch", "title": "Breakfast & Brunch"}, {"alias": "vegan", "title": "Vegan"}], "rating": 3.5, "coordinates": {"latitude": 40.80678, "longitude": -73.94588}, "transactions": ["delivery", "pickup", "restaurant_reservation"], "price": "$$", "location": {"address1": "274 Lenox Ave", "address2": "", "address3": "", "city": "Manhattan", "zip_code": "10027", "country": "US", "state": "NY", "display_address": ["274 Lenox Ave", "Manhattan, NY 10027"]}, "phone": "+16466885414", "display_phone": "(646) 688-5414", "distance": 11981.683173357354}, {"id": "chandni-restaurant-new-york-3", "name": "Chandni Restaurant", "image_url": "https://s3-media2.fl.yelpcdn.com/bphoto/SEuNgFTvQMey-W5PG5c0MQ/o.jpg", "is_closed": false, "url": "https://www.yelp.com/biz/chandni-restaurant-new-york-3?adjust_creative=pY8zJUWQtPjP9LVSrcR4eg&utm_campaign=yelp_api_v3&utm_medium=api_v3_business_search&utm_source=pY8zJUWQtPjP9LVSrcR4eg", "review_count": 122, "categories": [{"alias": "indpak", "title": "Indian"}], "rating": 3.5, "coordinates": {"latitude": 40.7459602355957, "longitude": -73.9878234863281}, "transactions": ["delivery", "pickup"], "price": "$", "location": {"address1": "13 W 29th St", "address2": "", "address3": "", "city": "New York", "zip_code": "10001", "country": "US", "state": "NY", "display_address": ["13 W 29th St", "New York, NY 10001"]}, "phone": "+12126864456", "display_phone": "(212) 686-4456", "distance": 4536.1325668984455}, {"id": "chawlas-south-ozone-park", "name": "Chawla's", "image_url": "https://s3-media3.fl.yelpcdn.com/bphoto/er7C3UqOphrJZZLLhnj02w/o.jpg", "is_closed": false, "url": "https://www.yelp.com/biz/chawlas-south-ozone-park?adjust_creative=pY8zJUWQtPjP9LVSrcR4eg&utm_campaign=yelp_api_v3&utm_medium=api_v3_business_search&utm_source=pY8zJUWQtPjP9LVSrcR4eg", "review_count": 54, "categories": [{"alias": "indpak", "title": "Indian"}], "rating": 4.0, "coordinates": {"latitude": 40.67507, "longitude": -73.8066}, "transactions": ["delivery", "pickup"], "price": "$", "location": {"address1": "131-19 Rockaway Blvd", "address2": "", "address3": "", "city": "South Ozone Park", "zip_code": "11420", "country": "US", "state": "NY", "display_address": ["131-19 Rockaway Blvd", "South Ozone Park, NY 11420"]}, "phone": "+17188801766", "display_phone": "(718) 880-1766", "distance": 16180.404840269439}, {"id": "india-cafe-ozone-park", "name": "India Cafe", "image_url": "https://s3-media2.fl.yelpcdn.com/bphoto/JIhT53Luh7jw2dpDmUNYiQ/o.jpg", "is_closed": false, "url": "https://www.yelp.com/biz/india-cafe-ozone-park?adjust_creative=pY8zJUWQtPjP9LVSrcR4eg&utm_campaign=yelp_api_v3&utm_medium=api_v3_business_search&utm_source=pY8zJUWQtPjP9LVSrcR4eg", "review_count": 49, "categories": [{"alias": "indpak", "title": "Indian"}], "rating": 4.0, "coordinates": {"latitude": 40.68235, "longitude": -73.82226}, "transactions": ["pickup", "delivery"], "price": "$$", "location": {"address1": "94-08 Lefferts Blvd", "address2": "", "address3": "", "city": "Ozone Park", "zip_code": "11419", "country": "US", "state": "NY", "display_address": ["94-08 Lefferts Blvd", "Ozone Park, NY 11419"]}, "phone": "+17188462842", "display_phone": "(718) 846-2842", "distance": 14076.768698221127}, {"id": "dosa-garden-staten-island", "name": "Dosa Garden", "image_url": "https://s3-media1.fl.yelpcdn.com/bphoto/XCYfEYkg4vK6pi1NVJEoOA/o.jpg", "is_closed": false, "url": "https://www.yelp.com/biz/dosa-garden-staten-island?adjust_creative=pY8zJUWQtPjP9LVSrcR4eg&utm_campaign=yelp_api_v3&utm_medium=api_v3_business_search&utm_source=pY8zJUWQtPjP9LVSrcR4eg", "review_count": 97, "categories": [{"alias": "indpak", "title": "Indian"}, {"alias": "srilankan", "title": "Sri Lankan"}, {"alias": "vegan", "title": "Vegan"}], "rating": 4.0, "coordinates": {"latitude": 40.6343269348145, "longitude": -74.0857772827148}, "transactions": ["delivery", "pickup"], "price": "$$", "location": {"address1": "323 Victory Blvd", "address2": "", "address3": "", "city": "Staten Island", "zip_code": "10301", "country": "US", "state": "NY", "display_address": ["323 Victory Blvd", "Staten Island, NY 10301"]}, "phone": "+17184200919", "display_phone": "(718) 420-0919", "distance": 11050.760111108482}, {"id": "desi-galli-new-york-2", "name": "Desi Galli", "image_url": "https://s3-media1.fl.yelpcdn.com/bphoto/IpiN-9DrNaoXENNG2KhqEA/o.jpg", "is_closed": false, "url": "https://www.yelp.com/biz/desi-galli-new-york-2?adjust_creative=pY8zJUWQtPjP9LVSrcR4eg&utm_campaign=yelp_api_v3&utm_medium=api_v3_business_search&utm_source=pY8zJUWQtPjP9LVSrcR4eg", "review_count": 258, "categories": [{"alias": "indpak", "title": "Indian"}], "rating": 3.5, "coordinates": {"latitude": 40.742069, "longitude": -73.982528}, "transactions": ["delivery", "pickup"], "price": "$", "location": {"address1": "101 Lexington Ave", "address2": null, "address3": "", "city": "New York", "zip_code": "10016", "country": "US", "state": "NY", "display_address": ["101 Lexington Ave", "New York, NY 10016"]}, "phone": "+12126832292", "display_phone": "(212) 683-2292", "distance": 4191.337396361788}, {"id": "mumbai-place-brooklyn", "name": "Mumbai Place", "image_url": "https://s3-media1.fl.yelpcdn.com/bphoto/lrWXoOt_Y75Xh-dZHujXvg/o.jpg", "is_closed": false, "url": "https://www.yelp.com/biz/mumbai-place-brooklyn?adjust_creative=pY8zJUWQtPjP9LVSrcR4eg&utm_campaign=yelp_api_v3&utm_medium=api_v3_business_search&utm_source=pY8zJUWQtPjP9LVSrcR4eg", "review_count": 21, "categories": [{"alias": "indpak", "title": "Indian"}, {"alias": "halal", "title": "Halal"}], "rating": 4.0, "coordinates": {"latitude": 40.677229, "longitude": -73.968651}, "transactions": ["delivery", "pickup"], "price": "$$", "location": {"address1": "655 Vanderbilt Ave", "address2": "", "address3": null, "city": "Brooklyn", "zip_code": "11238", "country": "US", "state": "NY", "display_address": ["655 Vanderbilt Ave", "Brooklyn, NY 11238"]}, "phone": "+17183987776", "display_phone": "(718) 398-7776", "distance": 3816.304444712778}, {"id": "punjabi-indian-and-american-restaurant-flushing", "name": "Punjabi Indian & American Restaurant", "image_url": "https://s3-media2.fl.yelpcdn.com/bphoto/yQD-hBJlqpicSroXXn4tUA/o.jpg", "is_closed": false, "url": "https://www.yelp.com/biz/punjabi-indian-and-american-restaurant-flushing?adjust_creative=pY8zJUWQtPjP9LVSrcR4eg&utm_campaign=yelp_api_v3&utm_medium=api_v3_business_search&utm_source=pY8zJUWQtPjP9LVSrcR4eg", "review_count": 86, "categories": [{"alias": "indpak", "title": "Indian"}, {"alias": "newamerican", "title": "American (New)"}], "rating": 3.5, "coordinates": {"latitude": 40.75367, "longitude": -73.80602}, "transactions": ["delivery", "pickup"], "price": "$", "location": {"address1": "160-20 46th Ave", "address2": "", "address3": "", "city": "Flushing", "zip_code": "11358", "country": "US", "state": "NY", "display_address": ["160-20 46th Ave", "Flushing, NY 11358"]}, "phone": "+17183218429", "display_phone": "(718) 321-8429", "distance": 16753.747928060526}, {"id": "bombay-sandwich-co-new-york-29", "name": "Bombay Sandwich Co.", "image_url": "https://s3-media3.fl.yelpcdn.com/bphoto/h6dQfazgf0eIWMIQ4cH_dw/o.jpg", "is_closed": false, "url": "https://www.yelp.com/biz/bombay-sandwich-co-new-york-29?adjust_creative=pY8zJUWQtPjP9LVSrcR4eg&utm_campaign=yelp_api_v3&utm_medium=api_v3_business_search&utm_source=pY8zJUWQtPjP9LVSrcR4eg", "review_count": 327, "categories": [{"alias": "indpak", "title": "Indian"}, {"alias": "vegan", "title": "Vegan"}, {"alias": "gluten_free", "title": "Gluten-Free"}], "rating": 4.0, "coordinates": {"latitude": 40.7450715521913, "longitude": -73.990359620218}, "transactions": ["delivery", "pickup"], "price": "$$", "location": {"address1": "48 W 27th St", "address2": "", "address3": "", "city": "New York", "zip_code": "10001", "country": "US", "state": "NY", "display_address": ["48 W 27th St", "New York, NY 10001"]}, "phone": "+16467819756", "display_phone": "(646) 781-9756", "distance": 4418.73248865666}, {"id": "lahore-deli-new-york", "name": "Lahore Deli", "image_url": "https://s3-media4.fl.yelpcdn.com/bphoto/aPRGUvmBvlvtQKr1ioOhjw/o.jpg", "is_closed": false, "url": "https://www.yelp.com/biz/lahore-deli-new-york?adjust_creative=pY8zJUWQtPjP9LVSrcR4eg&utm_campaign=yelp_api_v3&utm_medium=api_v3_business_search&utm_source=pY8zJUWQtPjP9LVSrcR4eg", "review_count": 153, "categories": [{"alias": "delis", "title": "Delis"}, {"alias": "indpak", "title": "Indian"}, {"alias": "pakistani", "title": "Pakistani"}], "rating": 4.0, "coordinates": {"latitude": 40.72478, "longitude": -73.99632}, "transactions": ["delivery", "pickup"], "price": "$", "location": {"address1": "132 Crosby St", "address2": "", "address3": "", "city": "New York", "zip_code": "10012", "country": "US", "state": "NY", "display_address": ["132 Crosby St", "New York, NY 10012"]}, "phone": "+12129651777", "display_phone": "(212) 965-1777", "distance": 2155.861820269994}, {"id": "aanchal-indian-restaurant-and-bar-long-island-city-4", "name": "Aanchal Indian Restaurant & Bar", "image_url": "https://s3-media2.fl.yelpcdn.com/bphoto/PxF7TLNtT2dnW6lmNvev2w/o.jpg", "is_closed": false, "url": "https://www.yelp.com/biz/aanchal-indian-restaurant-and-bar-long-island-city-4?adjust_creative=pY8zJUWQtPjP9LVSrcR4eg&utm_campaign=yelp_api_v3&utm_medium=api_v3_business_search&utm_source=pY8zJUWQtPjP9LVSrcR4eg", "review_count": 108, "categories": [{"alias": "indpak", "title": "Indian"}, {"alias": "bars", "title": "Bars"}], "rating": 3.5, "coordinates": {"latitude": 40.74659, "longitude": -73.94573}, "transactions": ["delivery", "pickup"], "price": "$$", "location": {"address1": "45-12 23rd St", "address2": "", "address3": "", "city": "Long Island City", "zip_code": "11101", "country": "US", "state": "NY", "display_address": ["45-12 23rd St", "Long Island City, NY 11101"]}, "phone": "+17183499060", "display_phone": "(718) 349-9060", "distance": 6149.150103206717}, {"id": "bhatti-indian-grill-new-york", "name": "Bhatti Indian Grill", "image_url": "https://s3-media1.fl.yelpcdn.com/bphoto/3S8VdngSGwxQMem3yol3RA/o.jpg", "is_closed": false, "url": "https://www.yelp.com/biz/bhatti-indian-grill-new-york?adjust_creative=pY8zJUWQtPjP9LVSrcR4eg&utm_campaign=yelp_api_v3&utm_medium=api_v3_business_search&utm_source=pY8zJUWQtPjP9LVSrcR4eg", "review_count": 579, "categories": [{"alias": "indpak", "title": "Indian"}], "rating": 3.5, "coordinates": {"latitude": 40.74221, "longitude": -73.98308}, "transactions": ["delivery", "pickup"], "price": "$$", "location": {"address1": "100 Lexington Ave", "address2": "", "address3": "", "city": "New York", "zip_code": "10016", "country": "US", "state": "NY", "display_address": ["100 Lexington Ave", "New York, NY 10016"]}, "phone": "+12126834228", "display_phone": "(212) 683-4228", "distance": 4197.917202907604}, {"id": "maharaja-palace-new-york-2", "name": "Maharaja Palace", "image_url": "https://s3-media4.fl.yelpcdn.com/bphoto/SSJ3IdFsvafK4E9iD4Y1PQ/o.jpg", "is_closed": false, "url": "https://www.yelp.com/biz/maharaja-palace-new-york-2?adjust_creative=pY8zJUWQtPjP9LVSrcR4eg&utm_campaign=yelp_api_v3&utm_medium=api_v3_business_search&utm_source=pY8zJUWQtPjP9LVSrcR4eg", "review_count": 143, "categories": [{"alias": "indpak", "title": "Indian"}, {"alias": "diners", "title": "Diners"}, {"alias": "vegetarian", "title": "Vegetarian"}], "rating": 3.5, "coordinates": {"latitude": 40.8033065717907, "longitude": -73.9562846158103}, "transactions": ["delivery", "pickup", "restaurant_reservation"], "price": "$$", "location": {"address1": "2113 Frederick Douglass Blvd", "address2": "", "address3": "", "city": "New York", "zip_code": "10026", "country": "US", "state": "NY", "display_address": ["2113 Frederick Douglass Blvd", "New York, NY 10026"]}, "phone": "+12122228934", "display_phone": "(212) 222-8934", "distance": 11342.904110020856}, {"id": "brick-lane-curry-house-new-york", "name": "Brick Lane Curry House", "image_url": "https://s3-media2.fl.yelpcdn.com/bphoto/gtSEyLmdLXC0O3NDCnTIBA/o.jpg", "is_closed": false, "url": "https://www.yelp.com/biz/brick-lane-curry-house-new-york?adjust_creative=pY8zJUWQtPjP9LVSrcR4eg&utm_campaign=yelp_api_v3&utm_medium=api_v3_business_search&utm_source=pY8zJUWQtPjP9LVSrcR4eg", "review_count": 932, "categories": [{"alias": "indpak", "title": "Indian"}], "rating": 3.5, "coordinates": {"latitude": 40.72738, "longitude": -73.98897}, "transactions": ["delivery", "pickup", "restaurant_reservation"], "price": "$$", "location": {"address1": "99 2nd Ave", "address2": "", "address3": "", "city": "New York", "zip_code": "10003", "country": "US", "state": "NY", "display_address": ["99 2nd Ave", "New York, NY 10003"]}, "phone": "+12129792900", "display_phone": "(212) 979-2900", "distance": 2479.540920168048}, {"id": "indian-xpress-2-staten-island", "name": "Indian Xpress 2", "image_url": "https://s3-media4.fl.yelpcdn.com/bphoto/FmjiM0PPBba0qe-fZDCLtg/o.jpg", "is_closed": false, "url": "https://www.yelp.com/biz/indian-xpress-2-staten-island?adjust_creative=pY8zJUWQtPjP9LVSrcR4eg&utm_campaign=yelp_api_v3&utm_medium=api_v3_business_search&utm_source=pY8zJUWQtPjP9LVSrcR4eg", "review_count": 14, "categories": [{"alias": "indpak", "title": "Indian"}], "rating": 4.0, "coordinates": {"latitude": 40.59834, "longitude": -74.08302}, "transactions": ["delivery", "pickup"], "location": {"address1": "1201 Hylan Blvd", "address2": "", "address3": null, "city": "Staten Island", "zip_code": "10305", "country": "US", "state": "NY", "display_address": ["1201 Hylan Blvd", "Staten Island, NY 10305"]}, "phone": "+17184426673", "display_phone": "(718) 442-6673", "distance": 14061.162588187584}, {"id": "spice-wala-indian-cuisine-new-york", "name": "Spice Wala Indian Cuisine", "image_url": "https://s3-media2.fl.yelpcdn.com/bphoto/oAuiBmrlMcgKxC_pbgmYIQ/o.jpg", "is_closed": false, "url": "https://www.yelp.com/biz/spice-wala-indian-cuisine-new-york?adjust_creative=pY8zJUWQtPjP9LVSrcR4eg&utm_campaign=yelp_api_v3&utm_medium=api_v3_business_search&utm_source=pY8zJUWQtPjP9LVSrcR4eg", "review_count": 24, "categories": [{"alias": "indpak", "title": "Indian"}], "rating": 4.0, "coordinates": {"latitude": 40.7263365, "longitude": -73.9864126}, "transactions": ["delivery", "pickup"], "price": "$$", "location": {"address1": "97 1st Ave", "address2": null, "address3": "", "city": "New York", "zip_code": "10003", "country": "US", "state": "NY", "display_address": ["97 1st Ave", "New York, NY 10003"]}, "phone": "+12122540532", "display_phone": "(212) 254-0532", "distance": 2418.076757279414}, {"id": "anarkali-indian-cuisine-brooklyn", "name": "Anarkali Indian Cuisine", "image_url": "https://s3-media2.fl.yelpcdn.com/bphoto/p8dqxVO9huUK7UFd3rjZWw/o.jpg", "is_closed": false, "url": "https://www.yelp.com/biz/anarkali-indian-cuisine-brooklyn?adjust_creative=pY8zJUWQtPjP9LVSrcR4eg&utm_campaign=yelp_api_v3&utm_medium=api_v3_business_search&utm_source=pY8zJUWQtPjP9LVSrcR4eg", "review_count": 88, "categories": [{"alias": "indpak", "title": "Indian"}], "rating": 3.5, "coordinates": {"latitude": 40.647476, "longitude": -73.9686}, "transactions": ["delivery", "pickup"], "price": "$$", "location": {"address1": "1125 Church Ave", "address2": "", "address3": "", "city": "Brooklyn", "zip_code": "11218", "country": "US", "state": "NY", "display_address": ["1125 Church Ave", "Brooklyn, NY 11218"]}, "phone": "+17182822200", "display_phone": "(718) 282-2200", "distance": 6800.255541757706}, {"id": "desi-galli-new-york-3", "name": "Desi Galli", "image_url": "https://s3-media3.fl.yelpcdn.com/bphoto/bmTWEoAeigdkDhgD0VIGUg/o.jpg", "is_closed": false, "url": "https://www.yelp.com/biz/desi-galli-new-york-3?adjust_creative=pY8zJUWQtPjP9LVSrcR4eg&utm_campaign=yelp_api_v3&utm_medium=api_v3_business_search&utm_source=pY8zJUWQtPjP9LVSrcR4eg", "review_count": 53, "categories": [{"alias": "indpak", "title": "Indian"}], "rating": 3.5, "coordinates": {"latitude": 40.72739, "longitude": -73.979782}, "transactions": ["delivery", "pickup"], "price": "$$", "location": {"address1": "172 Avenue B", "address2": "", "address3": "Corner 11th", "city": "New York", "zip_code": "10009", "country": "US", "state": "NY", "display_address": ["172 Avenue B", "Corner 11th", "New York, NY 10009"]}, "phone": "+12124753374", "display_phone": "(212) 475-3374", "distance": 2728.938513206214}, {"id": "revolution-sandwich-ny-new-york-3", "name": "Revolution Sandwich NY", "image_url": "https://s3-media3.fl.yelpcdn.com/bphoto/M5XhV8QG660-e4v2qgf7hw/o.jpg", "is_closed": false, "url": "https://www.yelp.com/biz/revolution-sandwich-ny-new-york-3?adjust_creative=pY8zJUWQtPjP9LVSrcR4eg&utm_campaign=yelp_api_v3&utm_medium=api_v3_business_search&utm_source=pY8zJUWQtPjP9LVSrcR4eg", "review_count": 51, "categories": [{"alias": "sandwiches", "title": "Sandwiches"}, {"alias": "burgers", "title": "Burgers"}, {"alias": "indpak", "title": "Indian"}], "rating": 4.5, "coordinates": {"latitude": 40.7191286, "longitude": -74.0032257}, "transactions": ["delivery", "pickup"], "price": "$$", "location": {"address1": "52 Walker St", "address2": "Fl 1", "address3": "", "city": "New York", "zip_code": "10013", "country": "US", "state": "NY", "display_address": ["52 Walker St", "Fl 1", "New York, NY 10013"]}, "phone": "+16463602237", "display_phone": "(646) 360-2237", "distance": 1697.635590816886}, {"id": "indian-taj-jackson-heights", "name": "Indian Taj", "image_url": "https://s3-media3.fl.yelpcdn.com/bphoto/TWT8bQb3KFSwxhetcp0MHw/o.jpg", "is_closed": false, "url": "https://www.yelp.com/biz/indian-taj-jackson-heights?adjust_creative=pY8zJUWQtPjP9LVSrcR4eg&utm_campaign=yelp_api_v3&utm_medium=api_v3_business_search&utm_source=pY8zJUWQtPjP9LVSrcR4eg", "review_count": 233, "categories": [{"alias": "indpak", "title": "Indian"}, {"alias": "buffets", "title": "Buffets"}, {"alias": "pakistani", "title": "Pakistani"}], "rating": 3.5, "coordinates": {"latitude": 40.7482641393121, "longitude": -73.891643603866}, "transactions": ["delivery", "pickup"], "price": "$$", "location": {"address1": "37-25 74th St", "address2": "", "address3": "", "city": "Jackson Heights", "zip_code": "11372", "country": "US", "state": "NY", "display_address": ["37-25 74th St", "Jackson Heights, NY 11372"]}, "phone": "+17186514187", "display_phone": "(718) 651-4187", "distance": 9877.178275780903}, {"id": "mashallah-sweets-and-restaurant-brooklyn", "name": "Mashallah Sweets & Restaurant", "image_url": "https://s3-media4.fl.yelpcdn.com/bphoto/MKnltJ0pTuSSDRrahGRjTw/o.jpg", "is_closed": false, "url": "https://www.yelp.com/biz/mashallah-sweets-and-restaurant-brooklyn?adjust_creative=pY8zJUWQtPjP9LVSrcR4eg&utm_campaign=yelp_api_v3&utm_medium=api_v3_business_search&utm_source=pY8zJUWQtPjP9LVSrcR4eg", "review_count": 81, "categories": [{"alias": "pakistani", "title": "Pakistani"}, {"alias": "indpak", "title": "Indian"}], "rating": 3.5, "coordinates": {"latitude": 40.641254, "longitude": -73.969039}, "transactions": ["delivery", "pickup"], "price": "$", "location": {"address1": "663 Coney Island Ave", "address2": null, "address3": "", "city": "Brooklyn", "zip_code": "11218", "country": "US", "state": "NY", "display_address": ["663 Coney Island Ave", "Brooklyn, NY 11218"]}, "phone": "+17182870090", "display_phone": "(718) 287-0090", "distance": 7449.588703324129}, {"id": "ny-dosas-new-york", "name": "NY Dosas", "image_url": "https://s3-media1.fl.yelpcdn.com/bphoto/lCXyVKX-uqyPezcqjB4vVw/o.jpg", "is_closed": false, "url": "https://www.yelp.com/biz/ny-dosas-new-york?adjust_creative=pY8zJUWQtPjP9LVSrcR4eg&utm_campaign=yelp_api_v3&utm_medium=api_v3_business_search&utm_source=pY8zJUWQtPjP9LVSrcR4eg", "review_count": 354, "categories": [{"alias": "indpak", "title": "Indian"}, {"alias": "foodstands", "title": "Food Stands"}, {"alias": "vegetarian", "title": "Vegetarian"}], "rating": 4.5, "coordinates": {"latitude": 40.7308386079893, "longitude": -73.99863779767}, "transactions": [], "price": "$", "location": {"address1": "50 Washington Sq S", "address2": "", "address3": "", "city": "New York", "zip_code": "10014", "country": "US", "state": "NY", "display_address": ["50 Washington Sq S", "New York, NY 10014"]}, "phone": "+19177102092", "display_phone": "(917) 710-2092", "distance": 2847.293312447184}, {"id": "haat-bazaar-jackson-heights", "name": "Haat Bazaar", "image_url": "https://s3-media4.fl.yelpcdn.com/bphoto/Elb3hoNp_BYituAXBL-jWw/o.jpg", "is_closed": false, "url": "https://www.yelp.com/biz/haat-bazaar-jackson-heights?adjust_creative=pY8zJUWQtPjP9LVSrcR4eg&utm_campaign=yelp_api_v3&utm_medium=api_v3_business_search&utm_source=pY8zJUWQtPjP9LVSrcR4eg", "review_count": 81, "categories": [{"alias": "bangladeshi", "title": "Bangladeshi"}, {"alias": "indpak", "title": "Indian"}, {"alias": "halal", "title": "Halal"}], "rating": 4.0, "coordinates": {"latitude": 40.748491, "longitude": -73.892382}, "transactions": [], "price": "$", "location": {"address1": "3711 73rd St", "address2": "Ste 73", "address3": "", "city": "Jackson Heights", "zip_code": "11372", "country": "US", "state": "NY", "display_address": ["3711 73rd St", "Ste 73", "Jackson Heights, NY 11372"]}, "phone": "+19176530946", "display_phone": "(917) 653-0946", "distance": 9825.416593938517}, {"id": "indikitch-new-york-6", "name": "Indikitch", "image_url": "https://s3-media2.fl.yelpcdn.com/bphoto/-n2EanauF58XcpuZO0eSoA/o.jpg", "is_closed": false, "url": "https://www.yelp.com/biz/indikitch-new-york-6?adjust_creative=pY8zJUWQtPjP9LVSrcR4eg&utm_campaign=yelp_api_v3&utm_medium=api_v3_business_search&utm_source=pY8zJUWQtPjP9LVSrcR4eg", "review_count": 19, "categories": [{"alias": "indpak", "title": "Indian"}], "rating": 3.5, "coordinates": {"latitude": 40.75216, "longitude": -73.98724}, "transactions": [], "price": "$$", "location": {"address1": "109 W 37th St", "address2": null, "address3": "", "city": "New York", "zip_code": "10018", "country": "US", "state": "NY", "display_address": ["109 W 37th St", "New York, NY 10018"]}, "phone": "+16464909950", "display_phone": "(646) 490-9950", "distance": 5227.861792125524}, {"id": "lahori-chilli-brooklyn-2", "name": "Lahori Chilli", "image_url": "https://s3-media3.fl.yelpcdn.com/bphoto/bdD-Wfh5eoNVVMbrKQuHWA/o.jpg", "is_closed": false, "url": "https://www.yelp.com/biz/lahori-chilli-brooklyn-2?adjust_creative=pY8zJUWQtPjP9LVSrcR4eg&utm_campaign=yelp_api_v3&utm_medium=api_v3_business_search&utm_source=pY8zJUWQtPjP9LVSrcR4eg", "review_count": 39, "categories": [{"alias": "pakistani", "title": "Pakistani"}, {"alias": "indpak", "title": "Indian"}, {"alias": "bangladeshi", "title": "Bangladeshi"}], "rating": 4.0, "coordinates": {"latitude": 40.6325723270442, "longitude": -73.9669932453672}, "transactions": ["delivery", "pickup"], "price": "$", "location": {"address1": "1026 Coney Island Ave", "address2": "", "address3": "", "city": "Brooklyn", "zip_code": "11230", "country": "US", "state": "NY", "display_address": ["1026 Coney Island Ave", "Brooklyn, NY 11230"]}, "phone": "+17188591400", "display_phone": "(718) 859-1400", "distance": 8423.821123729098}, {"id": "saravana-bhavan-new-york-3", "name": "Saravana Bhavan", "image_url": "https://s3-media2.fl.yelpcdn.com/bphoto/_rjjNDmUi0MKDBz2PvrATg/o.jpg", "is_closed": false, "url": "https://www.yelp.com/biz/saravana-bhavan-new-york-3?adjust_creative=pY8zJUWQtPjP9LVSrcR4eg&utm_campaign=yelp_api_v3&utm_medium=api_v3_business_search&utm_source=pY8zJUWQtPjP9LVSrcR4eg", "review_count": 258, "categories": [{"alias": "indpak", "title": "Indian"}], "rating": 3.0, "coordinates": {"latitude": 40.7835899, "longitude": -73.97777}, "transactions": ["pickup", "delivery"], "price": "$$", "location": {"address1": "413 Amsterdam Ave", "address2": "", "address3": "", "city": "New York", "zip_code": "10024", "country": "US", "state": "NY", "display_address": ["413 Amsterdam Ave", "New York, NY 10024"]}, "phone": "+12127217755", "display_phone": "(212) 721-7755", "distance": 8796.396509234743}, {"id": "al-naimat-restaurant-and-sweets-jackson-heights", "name": "Al Naimat Restaurant & Sweets", "image_url": "https://s3-media2.fl.yelpcdn.com/bphoto/FHmPn_7l8A8saUQROHswEQ/o.jpg", "is_closed": false, "url": "https://www.yelp.com/biz/al-naimat-restaurant-and-sweets-jackson-heights?adjust_creative=pY8zJUWQtPjP9LVSrcR4eg&utm_campaign=yelp_api_v3&utm_medium=api_v3_business_search&utm_source=pY8zJUWQtPjP9LVSrcR4eg", "review_count": 103, "categories": [{"alias": "indpak", "title": "Indian"}, {"alias": "desserts", "title": "Desserts"}, {"alias": "coffee", "title": "Coffee & Tea"}], "rating": 4.0, "coordinates": {"latitude": 40.74882, "longitude": -73.891538}, "transactions": [], "price": "$", "location": {"address1": "3703 74th St", "address2": "", "address3": "", "city": "Jackson Heights", "zip_code": "11372", "country": "US", "state": "NY", "display_address": ["3703 74th St", "Jackson Heights, NY 11372"]}, "phone": "+17184761100", "display_phone": "(718) 476-1100", "distance": 9902.939365149427}, {"id": "dilli-junction-hoboken-3", "name": "Dilli Junction", "image_url": "https://s3-media3.fl.yelpcdn.com/bphoto/emheKHzCXRdGM3kPBozmZQ/o.jpg", "is_closed": false, "url": "https://www.yelp.com/biz/dilli-junction-hoboken-3?adjust_creative=pY8zJUWQtPjP9LVSrcR4eg&utm_campaign=yelp_api_v3&utm_medium=api_v3_business_search&utm_source=pY8zJUWQtPjP9LVSrcR4eg", "review_count": 102, "categories": [{"alias": "indpak", "title": "Indian"}], "rating": 4.0, "coordinates": {"latitude": 40.7427599, "longitude": -74.0296}, "transactions": ["delivery", "pickup"], "price": "$", "location": {"address1": "514 Washington St", "address2": null, "address3": "", "city": "Hoboken", "zip_code": "07030", "country": "US", "state": "NJ", "display_address": ["514 Washington St", "Hoboken, NJ 07030"]}, "phone": "+12019841004", "display_phone": "(201) 984-1004", "distance": 5102.068543420355}, {"id": "masala-club-new-york", "name": "Masala Club", "image_url": "https://s3-media2.fl.yelpcdn.com/bphoto/mykN7eNAFpwMsuiWHZY4oQ/o.jpg", "is_closed": false, "url": "https://www.yelp.com/biz/masala-club-new-york?adjust_creative=pY8zJUWQtPjP9LVSrcR4eg&utm_campaign=yelp_api_v3&utm_medium=api_v3_business_search&utm_source=pY8zJUWQtPjP9LVSrcR4eg", "review_count": 36, "categories": [{"alias": "indpak", "title": "Indian"}], "rating": 3.5, "coordinates": {"latitude": 40.8023335039616, "longitude": -73.9662829041481}, "transactions": ["delivery", "pickup"], "price": "$$", "location": {"address1": "254 W 108th St", "address2": null, "address3": "", "city": "New York", "zip_code": "10025", "country": "US", "state": "NY", "display_address": ["254 W 108th St", "New York, NY 10025"]}, "phone": "+12127497800", "display_phone": "(212) 749-7800", "distance": 11046.709888188228}, {"id": "delhi-heights-jackson-heights-2", "name": "Delhi Heights", "image_url": "https://s3-media2.fl.yelpcdn.com/bphoto/ucmRCGJm4QP5JQjEQAN6_w/o.jpg", "is_closed": false, "url": "https://www.yelp.com/biz/delhi-heights-jackson-heights-2?adjust_creative=pY8zJUWQtPjP9LVSrcR4eg&utm_campaign=yelp_api_v3&utm_medium=api_v3_business_search&utm_source=pY8zJUWQtPjP9LVSrcR4eg", "review_count": 289, "categories": [{"alias": "indpak", "title": "Indian"}, {"alias": "himalayan", "title": "Himalayan/Nepalese"}], "rating": 3.5, "coordinates": {"latitude": 40.7471, "longitude": -73.89176}, "transactions": ["delivery", "pickup"], "price": "$$", "location": {"address1": "37-66 74th St", "address2": null, "address3": "", "city": "Jackson Heights", "zip_code": "11372", "country": "US", "state": "NY", "display_address": ["37-66 74th St", "Jackson Heights, NY 11372"]}, "phone": "+17185071111", "display_phone": "(718) 507-1111", "distance": 9803.1158445128}, {"id": "sapphire-indian-cuisine-new-york", "name": "Sapphire Indian Cuisine", "image_url": "https://s3-media1.fl.yelpcdn.com/bphoto/qmy3om7mBhf1gMWQdUXqnQ/o.jpg", "is_closed": false, "url": "https://www.yelp.com/biz/sapphire-indian-cuisine-new-york?adjust_creative=pY8zJUWQtPjP9LVSrcR4eg&utm_campaign=yelp_api_v3&utm_medium=api_v3_business_search&utm_source=pY8zJUWQtPjP9LVSrcR4eg", "review_count": 302, "categories": [{"alias": "indpak", "title": "Indian"}], "rating": 3.0, "coordinates": {"latitude": 40.76937, "longitude": -73.9824}, "transactions": ["delivery", "pickup", "restaurant_reservation"], "price": "$$", "location": {"address1": "1845 Broadway", "address2": "", "address3": "", "city": "New York", "zip_code": "10023", "country": "US", "state": "NY", "display_address": ["1845 Broadway", "New York, NY 10023"]}, "phone": "+12122454444", "display_phone": "(212) 245-4444", "distance": 7186.3126072694085}, {"id": "paradise-restaurant-brooklyn-3", "name": "Paradise Restaurant", "image_url": "https://s3-media2.fl.yelpcdn.com/bphoto/a1Vz9JXh7Oj5JRsjdmA-uA/o.jpg", "is_closed": false, "url": "https://www.yelp.com/biz/paradise-restaurant-brooklyn-3?adjust_creative=pY8zJUWQtPjP9LVSrcR4eg&utm_campaign=yelp_api_v3&utm_medium=api_v3_business_search&utm_source=pY8zJUWQtPjP9LVSrcR4eg", "review_count": 14, "categories": [{"alias": "indpak", "title": "Indian"}, {"alias": "pakistani", "title": "Pakistani"}, {"alias": "bangladeshi", "title": "Bangladeshi"}], "rating": 3.5, "coordinates": {"latitude": 40.638399991291, "longitude": -73.9980449527502}, "transactions": ["pickup", "delivery"], "price": "$$", "location": {"address1": "4904 Fort Hamilton Pkwy", "address2": "", "address3": null, "city": "Brooklyn", "zip_code": "11219", "country": "US", "state": "NY", "display_address": ["4904 Fort Hamilton Pkwy", "Brooklyn, NY 11219"]}, "phone": "+17189757796", "display_phone": "(718) 975-7796", "distance": 7461.752944131914}, {"id": "minar-indian-restaurant-new-york-2", "name": "Minar Indian Restaurant", "image_url": "https://s3-media1.fl.yelpcdn.com/bphoto/TfpTosBJJdxRC3Tg_pS1FQ/o.jpg", "is_closed": false, "url": "https://www.yelp.com/biz/minar-indian-restaurant-new-york-2?adjust_creative=pY8zJUWQtPjP9LVSrcR4eg&utm_campaign=yelp_api_v3&utm_medium=api_v3_business_search&utm_source=pY8zJUWQtPjP9LVSrcR4eg", "review_count": 289, "categories": [{"alias": "indpak", "title": "Indian"}], "rating": 3.5, "coordinates": {"latitude": 40.757882, "longitude": -73.984024}, "transactions": ["delivery", "pickup"], "price": "$", "location": {"address1": "138 W 46th St", "address2": null, "address3": "", "city": "New York", "zip_code": "10036", "country": "US", "state": "NY", "display_address": ["138 W 46th St", "New York, NY 10036"]}, "phone": "+12123984600", "display_phone": "(212) 398-4600", "distance": 5894.592337520347}, {"id": "agra-grill-bronx", "name": "Agra Grill", "image_url": "https://s3-media2.fl.yelpcdn.com/bphoto/DCW-ldowiC76_wxx6FChhA/o.jpg", "is_closed": false, "url": "https://www.yelp.com/biz/agra-grill-bronx?adjust_creative=pY8zJUWQtPjP9LVSrcR4eg&utm_campaign=yelp_api_v3&utm_medium=api_v3_business_search&utm_source=pY8zJUWQtPjP9LVSrcR4eg", "review_count": 58, "categories": [{"alias": "indpak", "title": "Indian"}], "rating": 4.0, "coordinates": {"latitude": 40.88465, "longitude": -73.86244}, "transactions": ["delivery", "pickup"], "price": "$$", "location": {"address1": "3835 White Plains Rd", "address2": "", "address3": "", "city": "Bronx", "zip_code": "10467", "country": "US", "state": "NY", "display_address": ["3835 White Plains Rd", "Bronx, NY 10467"]}, "phone": "+13473465228", "display_phone": "(347) 346-5228", "distance": 22808.717877314044}, {"id": "randiwa-staten-island", "name": "Randiwa", "image_url": "https://s3-media2.fl.yelpcdn.com/bphoto/ctIBc5LbgUZE1giNEY9g9Q/o.jpg", "is_closed": false, "url": "https://www.yelp.com/biz/randiwa-staten-island?adjust_creative=pY8zJUWQtPjP9LVSrcR4eg&utm_campaign=yelp_api_v3&utm_medium=api_v3_business_search&utm_source=pY8zJUWQtPjP9LVSrcR4eg", "review_count": 16, "categories": [{"alias": "srilankan", "title": "Sri Lankan"}, {"alias": "indpak", "title": "Indian"}], "rating": 4.5, "coordinates": {"latitude": 40.61364177952, "longitude": -74.157749999909}, "transactions": [], "price": "$$", "location": {"address1": "1405 Richmond Ave", "address2": "", "address3": null, "city": "Staten Island", "zip_code": "10314", "country": "US", "state": "NY", "display_address": ["1405 Richmond Ave", "Staten Island, NY 10314"]}, "phone": "+17184771044", "display_phone": "(718) 477-1044", "distance": 17155.435859117388}, {"id": "tangra-masala-elmhurst-2", "name": "Tangra Masala", "image_url": "https://s3-media2.fl.yelpcdn.com/bphoto/Np0P1tNUddOZv1xscli_EA/o.jpg", "is_closed": false, "url": "https://www.yelp.com/biz/tangra-masala-elmhurst-2?adjust_creative=pY8zJUWQtPjP9LVSrcR4eg&utm_campaign=yelp_api_v3&utm_medium=api_v3_business_search&utm_source=pY8zJUWQtPjP9LVSrcR4eg", "review_count": 265, "categories": [{"alias": "chinese", "title": "Chinese"}, {"alias": "indpak", "title": "Indian"}, {"alias": "seafood", "title": "Seafood"}], "rating": 3.5, "coordinates": {"latitude": 40.736536, "longitude": -73.878328}, "transactions": [], "price": "$$", "location": {"address1": "87-09 Grand Ave", "address2": "", "address3": "", "city": "Elmhurst", "zip_code": "11373", "country": "US", "state": "NY", "display_address": ["87-09 Grand Ave", "Elmhurst, NY 11373"]}, "phone": "+17188032298", "display_phone": "(718) 803-2298", "distance": 10366.32671193332}, {"id": "rajbhog-sweets-jackson-heights", "name": "Rajbhog Sweets", "image_url": "https://s3-media2.fl.yelpcdn.com/bphoto/BM5ExyOZn-6WgGIznkcZ9A/o.jpg", "is_closed": false, "url": "https://www.yelp.com/biz/rajbhog-sweets-jackson-heights?adjust_creative=pY8zJUWQtPjP9LVSrcR4eg&utm_campaign=yelp_api_v3&utm_medium=api_v3_business_search&utm_source=pY8zJUWQtPjP9LVSrcR4eg", "review_count": 168, "categories": [{"alias": "indpak", "title": "Indian"}], "rating": 4.0, "coordinates": {"latitude": 40.7489301, "longitude": -73.8932955}, "transactions": ["pickup", "delivery"], "price": "$", "location": {"address1": "7227 37th Ave", "address2": "", "address3": "", "city": "Jackson Heights", "zip_code": "11372", "country": "US", "state": "NY", "display_address": ["7227 37th Ave", "Jackson Heights, NY 11372"]}, "phone": "+17184588512", "display_phone": "(718) 458-8512", "distance": 9815.265192971025}, {"id": "basera-indian-bistro-new-york-2", "name": "Basera Indian Bistro", "image_url": "https://s3-media2.fl.yelpcdn.com/bphoto/8QnUNscsBxfzJ33Woc-eaA/o.jpg", "is_closed": false, "url": "https://www.yelp.com/biz/basera-indian-bistro-new-york-2?adjust_creative=pY8zJUWQtPjP9LVSrcR4eg&utm_campaign=yelp_api_v3&utm_medium=api_v3_business_search&utm_source=pY8zJUWQtPjP9LVSrcR4eg", "review_count": 389, "categories": [{"alias": "indpak", "title": "Indian"}, {"alias": "cocktailbars", "title": "Cocktail Bars"}, {"alias": "beerbar", "title": "Beer Bar"}], "rating": 3.5, "coordinates": {"latitude": 40.76384, "longitude": -73.9891}, "transactions": ["delivery", "pickup", "restaurant_reservation"], "price": "$$", "location": {"address1": "745 9th Ave", "address2": "", "address3": "", "city": "New York", "zip_code": "10019", "country": "US", "state": "NY", "display_address": ["745 9th Ave", "New York, NY 10019"]}, "phone": "+12127579787", "display_phone": "(212) 757-9787", "distance": 6509.470923858013}, {"id": "while-in-kathmandu-ridgewood", "name": "While In Kathmandu", "image_url": "https://s3-media1.fl.yelpcdn.com/bphoto/5vi8PYS-mvTqblHVJPsiqw/o.jpg", "is_closed": false, "url": "https://www.yelp.com/biz/while-in-kathmandu-ridgewood?adjust_creative=pY8zJUWQtPjP9LVSrcR4eg&utm_campaign=yelp_api_v3&utm_medium=api_v3_business_search&utm_source=pY8zJUWQtPjP9LVSrcR4eg", "review_count": 62, "categories": [{"alias": "cafes", "title": "Cafes"}, {"alias": "bars", "title": "Bars"}, {"alias": "himalayan", "title": "Himalayan/Nepalese"}], "rating": 4.5, "coordinates": {"latitude": 40.7020642, "longitude": -73.9067213}, "transactions": [], "price": "$", "location": {"address1": "758 Seneca Ave", "address2": null, "address3": "", "city": "Ridgewood", "zip_code": "11385", "country": "US", "state": "NY", "display_address": ["758 Seneca Ave", "Ridgewood, NY 11385"]}, "phone": "+17183863416", "display_phone": "(718) 386-3416", "distance": 7388.8697392070035}, {"id": "mysttik-masaala-new-york-15", "name": "Mysttik Masaala", "image_url": "https://s3-media3.fl.yelpcdn.com/bphoto/H-aMsYrifERt_mplE-xR6g/o.jpg", "is_closed": false, "url": "https://www.yelp.com/biz/mysttik-masaala-new-york-15?adjust_creative=pY8zJUWQtPjP9LVSrcR4eg&utm_campaign=yelp_api_v3&utm_medium=api_v3_business_search&utm_source=pY8zJUWQtPjP9LVSrcR4eg", "review_count": 80, "categories": [{"alias": "indpak", "title": "Indian"}, {"alias": "foodtrucks", "title": "Food Trucks"}], "rating": 4.5, "coordinates": {"latitude": 40.75576, "longitude": -73.97547}, "transactions": [], "location": {"address1": "270 Park Ave", "address2": "", "address3": null, "city": "New York", "zip_code": "10172", "country": "US", "state": "NY", "display_address": ["270 Park Ave", "New York, NY 10172"]}, "phone": "+19173063128", "display_phone": "(917) 306-3128", "distance": 5825.670783557584}, {"id": "eggmania-jersey-city", "name": "Eggmania", "image_url": "https://s3-media1.fl.yelpcdn.com/bphoto/BufDmaAx-hojmiWY6oDhAA/o.jpg", "is_closed": false, "url": "https://www.yelp.com/biz/eggmania-jersey-city?adjust_creative=pY8zJUWQtPjP9LVSrcR4eg&utm_campaign=yelp_api_v3&utm_medium=api_v3_business_search&utm_source=pY8zJUWQtPjP9LVSrcR4eg", "review_count": 282, "categories": [{"alias": "indpak", "title": "Indian"}], "rating": 4.5, "coordinates": {"latitude": 40.7361383, "longitude": -74.0646962}, "transactions": [], "price": "$$", "location": {"address1": "14 Liberty Ave", "address2": "", "address3": "", "city": "Jersey City", "zip_code": "07306", "country": "US", "state": "NJ", "display_address": ["14 Liberty Ave", "Jersey City, NJ 07306"]}, "phone": "+12016304620", "display_phone": "(201) 630-4620", "distance": 6844.751786554462}, {"id": "tandoori-palace-jackson-heights", "name": "Tandoori Palace", "image_url": "https://s3-media1.fl.yelpcdn.com/bphoto/WRPYNiy3eqM5wWaajNYRuA/o.jpg", "is_closed": false, "url": "https://www.yelp.com/biz/tandoori-palace-jackson-heights?adjust_creative=pY8zJUWQtPjP9LVSrcR4eg&utm_campaign=yelp_api_v3&utm_medium=api_v3_business_search&utm_source=pY8zJUWQtPjP9LVSrcR4eg", "review_count": 3, "categories": [{"alias": "indpak", "title": "Indian"}, {"alias": "pakistani", "title": "Pakistani"}], "rating": 4.0, "coordinates": {"latitude": 40.7488341, "longitude": -73.8914834}, "transactions": [], "location": {"address1": "7414 37th Ave", "address2": "", "address3": "", "city": "Jackson Heights", "zip_code": "11372", "country": "US", "state": "NY", "display_address": ["7414 37th Ave", "Jackson Heights, NY 11372"]}, "phone": "", "display_phone": "", "distance": 9930.378538280722}, {"id": "merit-kabab-palace-jackson-heights", "name": "Merit Kabab Palace", "image_url": "https://s3-media1.fl.yelpcdn.com/bphoto/s3-1cF_F9_xC0r4wNhyvPg/o.jpg", "is_closed": false, "url": "https://www.yelp.com/biz/merit-kabab-palace-jackson-heights?adjust_creative=pY8zJUWQtPjP9LVSrcR4eg&utm_campaign=yelp_api_v3&utm_medium=api_v3_business_search&utm_source=pY8zJUWQtPjP9LVSrcR4eg", "review_count": 79, "categories": [{"alias": "indpak", "title": "Indian"}, {"alias": "himalayan", "title": "Himalayan/Nepalese"}, {"alias": "bangladeshi", "title": "Bangladeshi"}], "rating": 4.0, "coordinates": {"latitude": 40.74711, "longitude": -73.8912299}, "transactions": [], "price": "$", "location": {"address1": "37-67 74th St", "address2": "", "address3": "", "city": "Jackson Heights", "zip_code": "11372", "country": "US", "state": "NY", "display_address": ["37-67 74th St", "Jackson Heights, NY 11372"]}, "phone": "+17183965827", "display_phone": "(718) 396-5827", "distance": 9843.843504590783}, {"id": "the-kati-roll-company-new-york", "name": "The Kati Roll Company", "image_url": "https://s3-media2.fl.yelpcdn.com/bphoto/2C5LUoM_lGe5tSuEMIvjXw/o.jpg", "is_closed": false, "url": "https://www.yelp.com/biz/the-kati-roll-company-new-york?adjust_creative=pY8zJUWQtPjP9LVSrcR4eg&utm_campaign=yelp_api_v3&utm_medium=api_v3_business_search&utm_source=pY8zJUWQtPjP9LVSrcR4eg", "review_count": 785, "categories": [{"alias": "indpak", "title": "Indian"}, {"alias": "halal", "title": "Halal"}], "rating": 4.0, "coordinates": {"latitude": 40.7296, "longitude": -74.00096}, "transactions": ["delivery", "pickup"], "price": "$", "location": {"address1": "99 MacDougal St", "address2": "", "address3": "", "city": "New York", "zip_code": "10012", "country": "US", "state": "NY", "display_address": ["99 MacDougal St", "New York, NY 10012"]}, "phone": "+12124206497", "display_phone": "(212) 420-6497", "distance": 2761.745709752864}, {"id": "indikitch-new-york-5", "name": "Indikitch", "image_url": "https://s3-media4.fl.yelpcdn.com/bphoto/KyUdlmI2ceGH32Q9Uw6xTg/o.jpg", "is_closed": false, "url": "https://www.yelp.com/biz/indikitch-new-york-5?adjust_creative=pY8zJUWQtPjP9LVSrcR4eg&utm_campaign=yelp_api_v3&utm_medium=api_v3_business_search&utm_source=pY8zJUWQtPjP9LVSrcR4eg", "review_count": 70, "categories": [{"alias": "indpak", "title": "Indian"}], "rating": 4.0, "coordinates": {"latitude": 40.757638, "longitude": -73.981701}, "transactions": [], "price": "$$", "location": {"address1": "1190 6th Ave", "address2": "", "address3": "Rockefeller Center", "city": "New York", "zip_code": "10036", "country": "US", "state": "NY", "display_address": ["1190 6th Ave", "Rockefeller Center", "New York, NY 10036"]}, "phone": "+16464819905", "display_phone": "(646) 481-9905", "distance": 5900.83049711663}, {"id": "indian-house-biryani-new-york", "name": "Indian House Biryani", "image_url": "https://s3-media3.fl.yelpcdn.com/bphoto/1Cm1o5qpsB2TEx7HSzorIQ/o.jpg", "is_closed": false, "url": "https://www.yelp.com/biz/indian-house-biryani-new-york?adjust_creative=pY8zJUWQtPjP9LVSrcR4eg&utm_campaign=yelp_api_v3&utm_medium=api_v3_business_search&utm_source=pY8zJUWQtPjP9LVSrcR4eg", "review_count": 1, "categories": [{"alias": "indpak", "title": "Indian"}], "rating": 5.0, "coordinates": {"latitude": 40.715419203043, "longitude": -74.0112166106701}, "transactions": [], "location": {"address1": "274 Greenwich St", "address2": "", "address3": null, "city": "New York", "zip_code": "10007", "country": "US", "state": "NY", "display_address": ["274 Greenwich St", "New York, NY 10007"]}, "phone": "", "display_phone": "", "distance": 1811.2464363467657}, {"id": "yeti-spice-grill-new-york", "name": "Yeti Spice Grill", "image_url": "https://s3-media2.fl.yelpcdn.com/bphoto/EnIHoJJhtsSENF_DJNnZmA/o.jpg", "is_closed": false, "url": "https://www.yelp.com/biz/yeti-spice-grill-new-york?adjust_creative=pY8zJUWQtPjP9LVSrcR4eg&utm_campaign=yelp_api_v3&utm_medium=api_v3_business_search&utm_source=pY8zJUWQtPjP9LVSrcR4eg", "review_count": 23, "categories": [{"alias": "indpak", "title": "Indian"}, {"alias": "desserts", "title": "Desserts"}, {"alias": "kebab", "title": "Kebab"}], "rating": 4.0, "coordinates": {"latitude": 40.7802334786396, "longitude": -73.9467215538025}, "transactions": ["delivery", "pickup"], "price": "$$", "location": {"address1": "1764 1st Ave", "address2": "", "address3": null, "city": "New York", "zip_code": "10128", "country": "US", "state": "NY", "display_address": ["1764 1st Ave", "New York, NY 10128"]}, "phone": "+16465900942", "display_phone": "(646) 590-0942", "distance": 9231.444721290996}], "total": 1100, "region": {"center": {"longitude": -73.9942932129, "latitude": 40.7054448644}}}