{"businesses": [{"id": "bella-gioia-brooklyn-3", "name": "Bella Gioia", "image_url": "https://s3-media1.fl.yelpcdn.com/bphoto/7tmCpKo4yeTfM_D8OgyjDA/o.jpg", "is_closed": false, "url": "https://www.yelp.com/biz/bella-gioia-brooklyn-3?adjust_creative=pY8zJUWQtPjP9LVSrcR4eg&utm_campaign=yelp_api_v3&utm_medium=api_v3_business_search&utm_source=pY8zJUWQtPjP9LVSrcR4eg", "review_count": 147, "categories": [{"alias": "italian", "title": "Italian"}, {"alias": "wine_bars", "title": "Wine Bars"}, {"alias": "pizza", "title": "Pizza"}], "rating": 4.5, "coordinates": {"latitude": 40.6775302, "longitude": -73.9827215}, "transactions": ["pickup", "restaurant_reservation"], "price": "$$", "location": {"address1": "209 4th Ave", "address2": "", "address3": "", "city": "Brooklyn", "zip_code": "11217", "country": "US", "state": "NY", "display_address": ["209 4th Ave", "Brooklyn, NY 11217"]}, "phone": "+13472234176", "display_phone": "(347) 223-4176", "distance": 3253.6826076413736}, {"id": "arco-cafe-new-york", "name": "Arco Cafe", "image_url": "https://s3-media4.fl.yelpcdn.com/bphoto/WMC-GLfLlBaOWcaJhahQLQ/o.jpg", "is_closed": false, "url": "https://www.yelp.com/biz/arco-cafe-new-york?adjust_creative=pY8zJUWQtPjP9LVSrcR4eg&utm_campaign=yelp_api_v3&utm_medium=api_v3_business_search&utm_source=pY8zJUWQtPjP9LVSrcR4eg", "review_count": 206, "categories": [{"alias": "italian", "title": "Italian"}], "rating": 4.5, "coordinates": {"latitude": 40.7988462, "longitude": -73.967065}, "transactions": ["delivery", "pickup", "restaurant_reservation"], "price": "$$", "location": {"address1": "886 Amsterdam Ave", "address2": null, "address3": "", "city": "New York", "zip_code": "10025", "country": "US", "state": "NY", "display_address": ["886 Amsterdam Ave", "New York, NY 10025"]}, "phone": "+12126650033", "display_phone": "(212) 665-0033", "distance": 10619.497189363936}, {"id": "sergimmo-salumeria-new-york", "name": "Sergimmo Salumeria", "image_url": "https://s3-media3.fl.yelpcdn.com/bphoto/wgbVEA1CcmAydRK9pvy1lw/o.jpg", "is_closed": false, "url": "https://www.yelp.com/biz/sergimmo-salumeria-new-york?adjust_creative=pY8zJUWQtPjP9LVSrcR4eg&utm_campaign=yelp_api_v3&utm_medium=api_v3_business_search&utm_source=pY8zJUWQtPjP9LVSrcR4eg", "review_count": 578, "categories": [{"alias": "italian", "title": "Italian"}, {"alias": "sandwiches", "title": "Sandwiches"}, {"alias": "catering", "title": "Caterers"}], "rating": 4.0, "coordinates": {"latitude": 40.754296, "longitude": -73.995498}, "transactions": ["delivery", "pickup"], "price": "$$", "location": {"address1": "456 9th Ave", "address2": "", "address3": "", "city": "New York", "zip_code": "10018", "country": "US", "state": "NY", "display_address": ["456 9th Ave", "New York, NY 10018"]}, "phone": "+12129674212", "display_phone": "(212) 967-4212", "distance": 5432.940970344792}, {"id": "quality-italian-new-york", "name": "Quality Italian", "image_url": "https://s3-media1.fl.yelpcdn.com/bphoto/Iy8HpWe0xSQiI650m2oA4Q/o.jpg", "is_closed": false, "url": "https://www.yelp.com/biz/quality-italian-new-york?adjust_creative=pY8zJUWQtPjP9LVSrcR4eg&utm_campaign=yelp_api_v3&utm_medium=api_v3_business_search&utm_source=pY8zJUWQtPjP9LVSrcR4eg", "review_count": 770, "categories": [{"alias": "italian", "title": "Italian"}, {"alias": "steak", "title": "Steakhouses"}], "rating": 4.0, "coordinates": {"latitude": 40.7644044527436, "longitude": -73.9767805051616}, "transactions": ["restaurant_reservation"], "price": "$$$", "location": {"address1": "57 W 57th St", "address2": "", "address3": "", "city": "New York", "zip_code": "10019", "country": "US", "state": "NY", "display_address": ["57 W 57th St", "New York, NY 10019"]}, "phone": "+12123901111", "display_phone": "(212) 390-1111", "distance": 6720.000208913733}, {"id": "magna-restaurant-flushing-2", "name": "Magna Restaurant", "image_url": "https://s3-media1.fl.yelpcdn.com/bphoto/uBuSux8AWNmcdooVufTRpA/o.jpg", "is_closed": false, "url": "https://www.yelp.com/biz/magna-restaurant-flushing-2?adjust_creative=pY8zJUWQtPjP9LVSrcR4eg&utm_campaign=yelp_api_v3&utm_medium=api_v3_business_search&utm_source=pY8zJUWQtPjP9LVSrcR4eg", "review_count": 91, "categories": [{"alias": "italian", "title": "Italian"}, {"alias": "bars", "title": "Bars"}, {"alias": "breakfast_brunch", "title": "Breakfast & Brunch"}], "rating": 4.5, "coordinates": {"latitude": 40.76371, "longitude": -73.831117}, "transactions": ["restaurant_reservation"], "price": "$$", "location": {"address1": "3525 Farrington St", "address2": "", "address3": "", "city": "Flushing", "zip_code": "11354", "country": "US", "state": "NY", "display_address": ["3525 Farrington St", "Flushing, NY 11354"]}, "phone": "+17184453352", "display_phone": "(718) 445-3352", "distance": 15198.73345782548}, {"id": "da-mikele-new-york", "name": "Da Mikele", "image_url": "https://s3-media2.fl.yelpcdn.com/bphoto/0Ld5H6Udi3PzS6trtb-b0g/o.jpg", "is_closed": false, "url": "https://www.yelp.com/biz/da-mikele-new-york?adjust_creative=pY8zJUWQtPjP9LVSrcR4eg&utm_campaign=yelp_api_v3&utm_medium=api_v3_business_search&utm_source=pY8zJUWQtPjP9LVSrcR4eg", "review_count": 312, "categories": [{"alias": "italian", "title": "Italian"}, {"alias": "pizza", "title": "Pizza"}, {"alias": "cocktailbars", "title": "Cocktail Bars"}], "rating": 4.0, "coordinates": {"latitude": 40.718477, "longitude": -74.004802}, "transactions": ["delivery", "pickup", "restaurant_reservation"], "price": "$$", "location": {"address1": "275 Church St", "address2": "", "address3": "", "city": "New York", "zip_code": "10013", "country": "US", "state": "NY", "display_address": ["275 Church St", "New York, NY 10013"]}, "phone": "+12129258800", "display_phone": "(212) 925-8800", "distance": 1698.3636771543058}, {"id": "don-angie-new-york", "name": "Don Angie", "image_url": "https://s3-media2.fl.yelpcdn.com/bphoto/0pwyAEHxDjlAsHC3BDSayw/o.jpg", "is_closed": false, "url": "https://www.yelp.com/biz/don-angie-new-york?adjust_creative=pY8zJUWQtPjP9LVSrcR4eg&utm_campaign=yelp_api_v3&utm_medium=api_v3_business_search&utm_source=pY8zJUWQtPjP9LVSrcR4eg", "review_count": 75, "categories": [{"alias": "italian", "title": "Italian"}, {"alias": "newamerican", "title": "American (New)"}], "rating": 4.5, "coordinates": {"latitude": 40.73778, "longitude": -74.00197}, "transactions": [], "price": "$$$", "location": {"address1": "103 Greenwich Ave", "address2": "", "address3": null, "city": "New York", "zip_code": "10014", "country": "US", "state": "NY", "display_address": ["103 Greenwich Ave", "New York, NY 10014"]}, "phone": "+12128898884", "display_phone": "(212) 889-8884", "distance": 3657.6947913002814}, {"id": "da-marcella-new-york", "name": "Da Marcella", "image_url": "https://s3-media3.fl.yelpcdn.com/bphoto/yZXRvoZcM1iut9IFpAQoWg/o.jpg", "is_closed": false, "url": "https://www.yelp.com/biz/da-marcella-new-york?adjust_creative=pY8zJUWQtPjP9LVSrcR4eg&utm_campaign=yelp_api_v3&utm_medium=api_v3_business_search&utm_source=pY8zJUWQtPjP9LVSrcR4eg", "review_count": 218, "categories": [{"alias": "italian", "title": "Italian"}], "rating": 4.0, "coordinates": {"latitude": 40.72806, "longitude": -74.00172}, "transactions": ["delivery", "pickup", "restaurant_reservation"], "price": "$$", "location": {"address1": "142 W Houston St", "address2": "", "address3": "", "city": "New York", "zip_code": "10012", "country": "US", "state": "NY", "display_address": ["142 W Houston St", "New York, NY 10012"]}, "phone": "+16465599192", "display_phone": "(646) 559-9192", "distance": 2593.1247212220296}, {"id": "inatteso-pizzabar-casano-new-york-2", "name": "Inatteso Pizzabar Casano", "image_url": "https://s3-media3.fl.yelpcdn.com/bphoto/vTeie5kfXH-rkIiBwpPFVQ/o.jpg", "is_closed": false, "url": "https://www.yelp.com/biz/inatteso-pizzabar-casano-new-york-2?adjust_creative=pY8zJUWQtPjP9LVSrcR4eg&utm_campaign=yelp_api_v3&utm_medium=api_v3_business_search&utm_source=pY8zJUWQtPjP9LVSrcR4eg", "review_count": 253, "categories": [{"alias": "italian", "title": "Italian"}, {"alias": "pizza", "title": "Pizza"}], "rating": 4.0, "coordinates": {"latitude": 40.7056571, "longitude": -74.0172056}, "transactions": ["delivery", "pickup"], "price": "$$", "location": {"address1": "28 West St", "address2": "", "address3": "", "city": "New York", "zip_code": "10004", "country": "US", "state": "NY", "display_address": ["28 West St", "New York, NY 10004"]}, "phone": "+12122678000", "display_phone": "(212) 267-8000", "distance": 1931.6622993011279}, {"id": "broccolino-brooklyn", "name": "Broccolino", "image_url": "https://s3-media3.fl.yelpcdn.com/bphoto/HXnjsZGNSkeA7DzMcWc8QA/o.jpg", "is_closed": false, "url": "https://www.yelp.com/biz/broccolino-brooklyn?adjust_creative=pY8zJUWQtPjP9LVSrcR4eg&utm_campaign=yelp_api_v3&utm_medium=api_v3_business_search&utm_source=pY8zJUWQtPjP9LVSrcR4eg", "review_count": 216, "categories": [{"alias": "italian", "title": "Italian"}], "rating": 3.5, "coordinates": {"latitude": 40.6819311529398, "longitude": -73.9762727916241}, "transactions": ["delivery", "pickup"], "price": "$$", "location": {"address1": "446 Dean St", "address2": "", "address3": "", "city": "Brooklyn", "zip_code": "11217", "country": "US", "state": "NY", "display_address": ["446 Dean St", "Brooklyn, NY 11217"]}, "phone": "+17186784200", "display_phone": "(718) 678-4200", "distance": 3015.479023110086}, {"id": "acquista-trattoria-flushing-2", "name": "Acquista Trattoria", "image_url": "https://s3-media1.fl.yelpcdn.com/bphoto/CcrdI7oSnfnJ3kiGTGZ_fw/o.jpg", "is_closed": false, "url": "https://www.yelp.com/biz/acquista-trattoria-flushing-2?adjust_creative=pY8zJUWQtPjP9LVSrcR4eg&utm_campaign=yelp_api_v3&utm_medium=api_v3_business_search&utm_source=pY8zJUWQtPjP9LVSrcR4eg", "review_count": 297, "categories": [{"alias": "pizza", "title": "Pizza"}, {"alias": "italian", "title": "Italian"}], "rating": 4.0, "coordinates": {"latitude": 40.7265391, "longitude": -73.7898816}, "transactions": ["delivery", "pickup", "restaurant_reservation"], "price": "$$", "location": {"address1": "178-01 Union Tpke", "address2": "", "address3": "", "city": "Flushing", "zip_code": "11366", "country": "US", "state": "NY", "display_address": ["178-01 Union Tpke", "Flushing, NY 11366"]}, "phone": "+17189691411", "display_phone": "(718) 969-1411", "distance": 17385.20923132838}, {"id": "sottocasa-pizzeria-boerum-hill-brooklyn", "name": "Sottocasa Pizzeria- Boerum Hill", "image_url": "https://s3-media1.fl.yelpcdn.com/bphoto/AiKz4ZKr9d5T9nuV8Gg7VQ/o.jpg", "is_closed": false, "url": "https://www.yelp.com/biz/sottocasa-pizzeria-boerum-hill-brooklyn?adjust_creative=pY8zJUWQtPjP9LVSrcR4eg&utm_campaign=yelp_api_v3&utm_medium=api_v3_business_search&utm_source=pY8zJUWQtPjP9LVSrcR4eg", "review_count": 512, "categories": [{"alias": "pizza", "title": "Pizza"}, {"alias": "italian", "title": "Italian"}], "rating": 4.5, "coordinates": {"latitude": 40.68838, "longitude": -73.98895}, "transactions": ["delivery"], "price": "$$", "location": {"address1": "298 Atlantic Ave", "address2": null, "address3": "", "city": "Brooklyn", "zip_code": "11201", "country": "US", "state": "NY", "display_address": ["298 Atlantic Ave", "Brooklyn, NY 11201"]}, "phone": "+17188528758", "display_phone": "(718) 852-8758", "distance": 1953.16590979431}, {"id": "monsignors-restaurant-brooklyn", "name": "Monsignor's Restaurant", "image_url": "https://s3-media4.fl.yelpcdn.com/bphoto/00-H_sPxV2XkIXce-Pnxew/o.jpg", "is_closed": false, "url": "https://www.yelp.com/biz/monsignors-restaurant-brooklyn?adjust_creative=pY8zJUWQtPjP9LVSrcR4eg&utm_campaign=yelp_api_v3&utm_medium=api_v3_business_search&utm_source=pY8zJUWQtPjP9LVSrcR4eg", "review_count": 186, "categories": [{"alias": "italian", "title": "Italian"}, {"alias": "mexican", "title": "Mexican"}, {"alias": "desserts", "title": "Desserts"}], "rating": 4.0, "coordinates": {"latitude": 40.661552, "longitude": -73.992823}, "transactions": ["delivery", "pickup", "restaurant_reservation"], "price": "$$", "location": {"address1": "679 5th Ave", "address2": "", "address3": "", "city": "Brooklyn", "zip_code": "11215", "country": "US", "state": "NY", "display_address": ["679 5th Ave", "Brooklyn, NY 11215"]}, "phone": "+17183692575", "display_phone": "(718) 369-2575", "distance": 4882.232623620442}, {"id": "il-poeta-forest-hills", "name": "Il Poeta", "image_url": "https://s3-media1.fl.yelpcdn.com/bphoto/IKiF-oPZCczKk2xX-6T0Tw/o.jpg", "is_closed": false, "url": "https://www.yelp.com/biz/il-poeta-forest-hills?adjust_creative=pY8zJUWQtPjP9LVSrcR4eg&utm_campaign=yelp_api_v3&utm_medium=api_v3_business_search&utm_source=pY8zJUWQtPjP9LVSrcR4eg", "review_count": 176, "categories": [{"alias": "italian", "title": "Italian"}], "rating": 4.0, "coordinates": {"latitude": 40.7108, "longitude": -73.85454}, "transactions": ["pickup"], "price": "$$", "location": {"address1": "98-04 Metropolitan Ave", "address2": "", "address3": "", "city": "Forest Hills", "zip_code": "11375", "country": "US", "state": "NY", "display_address": ["98-04 Metropolitan Ave", "Forest Hills, NY 11375"]}, "phone": "+17185444223", "display_phone": "(718) 544-4223", "distance": 11794.181002231906}, {"id": "mama-marias-restaurant-brooklyn", "name": "Mama Maria's Restaurant", "image_url": "https://s3-media2.fl.yelpcdn.com/bphoto/xNXDjYEC68ZDJgtOGnV5GA/o.jpg", "is_closed": false, "url": "https://www.yelp.com/biz/mama-marias-restaurant-brooklyn?adjust_creative=pY8zJUWQtPjP9LVSrcR4eg&utm_campaign=yelp_api_v3&utm_medium=api_v3_business_search&utm_source=pY8zJUWQtPjP9LVSrcR4eg", "review_count": 99, "categories": [{"alias": "italian", "title": "Italian"}], "rating": 4.0, "coordinates": {"latitude": 40.68356, "longitude": -73.99517}, "transactions": ["delivery"], "price": "$$", "location": {"address1": "307 Court St", "address2": "", "address3": "", "city": "Brooklyn", "zip_code": "11231", "country": "US", "state": "NY", "display_address": ["307 Court St", "Brooklyn, NY 11231"]}, "phone": "+17182462601", "display_phone": "(718) 246-2601", "distance": 2436.691664914988}, {"id": "il-fornetto-brooklyn-2", "name": "il Fornetto", "image_url": "https://s3-media3.fl.yelpcdn.com/bphoto/BqfvVkfk7fErsgwg2OicuQ/o.jpg", "is_closed": false, "url": "https://www.yelp.com/biz/il-fornetto-brooklyn-2?adjust_creative=pY8zJUWQtPjP9LVSrcR4eg&utm_campaign=yelp_api_v3&utm_medium=api_v3_business_search&utm_source=pY8zJUWQtPjP9LVSrcR4eg", "review_count": 253, "categories": [{"alias": "italian", "title": "Italian"}, {"alias": "seafood", "title": "Seafood"}], "rating": 4.0, "coordinates": {"latitude": 40.5835841, "longitude": -73.9397077}, "transactions": ["pickup"], "price": "$$", "location": {"address1": "2902 Emmons Ave", "address2": "", "address3": "", "city": "Brooklyn", "zip_code": "11235", "country": "US", "state": "NY", "display_address": ["2902 Emmons Ave", "Brooklyn, NY 11235"]}, "phone": "+17183328494", "display_phone": "(718) 332-8494", "distance": 14311.53648009472}, {"id": "celeste-new-york", "name": "Celeste", "image_url": "https://s3-media3.fl.yelpcdn.com/bphoto/oKc6X6XyN41PeP6Wjz0xyQ/o.jpg", "is_closed": false, "url": "https://www.yelp.com/biz/celeste-new-york?adjust_creative=pY8zJUWQtPjP9LVSrcR4eg&utm_campaign=yelp_api_v3&utm_medium=api_v3_business_search&utm_source=pY8zJUWQtPjP9LVSrcR4eg", "review_count": 794, "categories": [{"alias": "italian", "title": "Italian"}, {"alias": "pizza", "title": "Pizza"}], "rating": 3.5, "coordinates": {"latitude": 40.78666, "longitude": -73.97599}, "transactions": [], "price": "$$", "location": {"address1": "502 Amsterdam Ave", "address2": "", "address3": "", "city": "New York", "zip_code": "10024", "country": "US", "state": "NY", "display_address": ["502 Amsterdam Ave", "New York, NY 10024"]}, "phone": "+12128744559", "display_phone": "(212) 874-4559", "distance": 9164.23028792982}, {"id": "patrizias-of-sheepshead-bay-brooklyn", "name": "Patrizia's Of Sheepshead Bay", "image_url": "https://s3-media2.fl.yelpcdn.com/bphoto/EmSJmuHkadHDL-cXOVvKlQ/o.jpg", "is_closed": false, "url": "https://www.yelp.com/biz/patrizias-of-sheepshead-bay-brooklyn?adjust_creative=pY8zJUWQtPjP9LVSrcR4eg&utm_campaign=yelp_api_v3&utm_medium=api_v3_business_search&utm_source=pY8zJUWQtPjP9LVSrcR4eg", "review_count": 41, "categories": [{"alias": "italian", "title": "Italian"}], "rating": 4.5, "coordinates": {"latitude": 40.5838270971647, "longitude": -73.9496481877971}, "transactions": [], "location": {"address1": "1901 Emmons Ave", "address2": null, "address3": "", "city": "Brooklyn", "zip_code": "11235", "country": "US", "state": "NY", "display_address": ["1901 Emmons Ave", "Brooklyn, NY 11235"]}, "phone": "+17189424848", "display_phone": "(718) 942-4848", "distance": 14038.051455604866}, {"id": "montes-brooklyn-26", "name": "Monte's", "image_url": "https://s3-media2.fl.yelpcdn.com/bphoto/aEXUpz-N2DLTOebz_sxJCQ/o.jpg", "is_closed": false, "url": "https://www.yelp.com/biz/montes-brooklyn-26?adjust_creative=pY8zJUWQtPjP9LVSrcR4eg&utm_campaign=yelp_api_v3&utm_medium=api_v3_business_search&utm_source=pY8zJUWQtPjP9LVSrcR4eg", "review_count": 115, "categories": [{"alias": "italian", "title": "Italian"}, {"alias": "pizza", "title": "Pizza"}], "rating": 4.0, "coordinates": {"latitude": 40.6775499, "longitude": -73.98724}, "transactions": ["delivery", "pickup"], "price": "$$", "location": {"address1": "451 Carroll St", "address2": "", "address3": "", "city": "Brooklyn", "zip_code": "11215", "country": "US", "state": "NY", "display_address": ["451 Carroll St", "Brooklyn, NY 11215"]}, "phone": "+17188527800", "display_phone": "(718) 852-7800", "distance": 3152.812021754494}, {"id": "enoteca-maria-staten-island-3", "name": "Enoteca Maria", "image_url": "https://s3-media1.fl.yelpcdn.com/bphoto/UTrMpoyjJT6w3viERoCgdA/o.jpg", "is_closed": false, "url": "https://www.yelp.com/biz/enoteca-maria-staten-island-3?adjust_creative=pY8zJUWQtPjP9LVSrcR4eg&utm_campaign=yelp_api_v3&utm_medium=api_v3_business_search&utm_source=pY8zJUWQtPjP9LVSrcR4eg", "review_count": 308, "categories": [{"alias": "italian", "title": "Italian"}], "rating": 4.0, "coordinates": {"latitude": 40.642, "longitude": -74.07729}, "transactions": [], "price": "$$", "location": {"address1": "27 Hyatt St", "address2": "", "address3": "", "city": "Staten Island", "zip_code": "10301", "country": "US", "state": "NY", "display_address": ["27 Hyatt St", "Staten Island, NY 10301"]}, "phone": "+17184472777", "display_phone": "(718) 447-2777", "distance": 9936.984507705984}, {"id": "rossinis-new-york", "name": "Rossini's", "image_url": "https://s3-media4.fl.yelpcdn.com/bphoto/84UOM1PKT5_ExDTG54isPw/o.jpg", "is_closed": false, "url": "https://www.yelp.com/biz/rossinis-new-york?adjust_creative=pY8zJUWQtPjP9LVSrcR4eg&utm_campaign=yelp_api_v3&utm_medium=api_v3_business_search&utm_source=pY8zJUWQtPjP9LVSrcR4eg", "review_count": 136, "categories": [{"alias": "italian", "title": "Italian"}], "rating": 4.0, "coordinates": {"latitude": 40.74921, "longitude": -73.97883}, "transactions": [], "price": "$$$", "location": {"address1": "108 E 38th St", "address2": "", "address3": "", "city": "New York", "zip_code": "10016", "country": "US", "state": "NY", "display_address": ["108 E 38th St", "New York, NY 10016"]}, "phone": "+12126830135", "display_phone": "(212) 683-0135", "distance": 5027.9129955789185}, {"id": "piccola-strada-new-york", "name": "Piccola Strada", "image_url": "https://s3-media2.fl.yelpcdn.com/bphoto/7Mi4p0yC1mspXzM862oblQ/o.jpg", "is_closed": false, "url": "https://www.yelp.com/biz/piccola-strada-new-york?adjust_creative=pY8zJUWQtPjP9LVSrcR4eg&utm_campaign=yelp_api_v3&utm_medium=api_v3_business_search&utm_source=pY8zJUWQtPjP9LVSrcR4eg", "review_count": 155, "categories": [{"alias": "italian", "title": "Italian"}], "rating": 4.0, "coordinates": {"latitude": 40.726635460956, "longitude": -73.9904360317688}, "transactions": [], "price": "$$", "location": {"address1": "77 E 4th St", "address2": "", "address3": "Between 5th Ave", "city": "New York", "zip_code": "10003", "country": "US", "state": "NY", "display_address": ["77 E 4th St", "Between 5th Ave", "New York, NY 10003"]}, "phone": "", "display_phone": "", "distance": 2378.603607987022}, {"id": "la-piccola-cucina-new-york", "name": "La Piccola Cucina", "image_url": "https://s3-media4.fl.yelpcdn.com/bphoto/aomiPwo_e8vutwyq2otNGg/o.jpg", "is_closed": false, "url": "https://www.yelp.com/biz/la-piccola-cucina-new-york?adjust_creative=pY8zJUWQtPjP9LVSrcR4eg&utm_campaign=yelp_api_v3&utm_medium=api_v3_business_search&utm_source=pY8zJUWQtPjP9LVSrcR4eg", "review_count": 90, "categories": [{"alias": "italian", "title": "Italian"}], "rating": 4.0, "coordinates": {"latitude": 40.8015, "longitude": -73.96534}, "transactions": ["delivery", "pickup"], "price": "$$", "location": {"address1": "964 Amsterdam Ave", "address2": "", "address3": "", "city": "New York", "zip_code": "10025", "country": "US", "state": "NY", "display_address": ["964 Amsterdam Ave", "New York, NY 10025"]}, "phone": "+12128661336", "display_phone": "(212) 866-1336", "distance": 10955.59071710057}, {"id": "da-gennaro-new-york", "name": "Da Gennaro", "image_url": "https://s3-media4.fl.yelpcdn.com/bphoto/1RfWyXigsYzx8cZDuvMOdg/o.jpg", "is_closed": false, "url": "https://www.yelp.com/biz/da-gennaro-new-york?adjust_creative=pY8zJUWQtPjP9LVSrcR4eg&utm_campaign=yelp_api_v3&utm_medium=api_v3_business_search&utm_source=pY8zJUWQtPjP9LVSrcR4eg", "review_count": 561, "categories": [{"alias": "italian", "title": "Italian"}, {"alias": "pizza", "title": "Pizza"}, {"alias": "gluten_free", "title": "Gluten-Free"}], "rating": 4.0, "coordinates": {"latitude": 40.71832, "longitude": -73.99794}, "transactions": [], "price": "$$", "location": {"address1": "129 Mulberry St", "address2": "", "address3": "", "city": "New York", "zip_code": "10013", "country": "US", "state": "NY", "display_address": ["129 Mulberry St", "New York, NY 10013"]}, "phone": "+12124313934", "display_phone": "(212) 431-3934", "distance": 1465.8732113207259}, {"id": "osteria-57-new-york", "name": "Osteria 57", "image_url": "https://s3-media2.fl.yelpcdn.com/bphoto/ntDpQDGXnAc0s_0BXsndKA/o.jpg", "is_closed": false, "url": "https://www.yelp.com/biz/osteria-57-new-york?adjust_creative=pY8zJUWQtPjP9LVSrcR4eg&utm_campaign=yelp_api_v3&utm_medium=api_v3_business_search&utm_source=pY8zJUWQtPjP9LVSrcR4eg", "review_count": 27, "categories": [{"alias": "italian", "title": "Italian"}, {"alias": "seafood", "title": "Seafood"}, {"alias": "vegetarian", "title": "Vegetarian"}], "rating": 4.5, "coordinates": {"latitude": 40.73467, "longitude": -73.99786}, "transactions": [], "price": "$$$", "location": {"address1": "57 W 10th St", "address2": null, "address3": "", "city": "New York", "zip_code": "10011", "country": "US", "state": "NY", "display_address": ["57 W 10th St", "New York, NY 10011"]}, "phone": "+12127770057", "display_phone": "(212) 777-0057", "distance": 3262.588020566046}, {"id": "il-mattone-new-york-3", "name": "Il Mattone", "image_url": "https://s3-media3.fl.yelpcdn.com/bphoto/vLSVgGZU0Kd-vqflLPmD8w/o.jpg", "is_closed": false, "url": "https://www.yelp.com/biz/il-mattone-new-york-3?adjust_creative=pY8zJUWQtPjP9LVSrcR4eg&utm_campaign=yelp_api_v3&utm_medium=api_v3_business_search&utm_source=pY8zJUWQtPjP9LVSrcR4eg", "review_count": 32, "categories": [{"alias": "italian", "title": "Italian"}], "rating": 4.5, "coordinates": {"latitude": 40.720799, "longitude": -74.0091255}, "transactions": ["delivery", "pickup"], "price": "$", "location": {"address1": "49 Beach St", "address2": "", "address3": "", "city": "New York", "zip_code": "10013", "country": "US", "state": "NY", "display_address": ["49 Beach St", "New York, NY 10013"]}, "phone": "+16469644623", "display_phone": "(646) 964-4623", "distance": 2116.053968491102}, {"id": "bar-b-new-york", "name": "Bar B", "image_url": "https://s3-media1.fl.yelpcdn.com/bphoto/1bFERxrNJ752A-umVuw2zg/o.jpg", "is_closed": false, "url": "https://www.yelp.com/biz/bar-b-new-york?adjust_creative=pY8zJUWQtPjP9LVSrcR4eg&utm_campaign=yelp_api_v3&utm_medium=api_v3_business_search&utm_source=pY8zJUWQtPjP9LVSrcR4eg", "review_count": 137, "categories": [{"alias": "italian", "title": "Italian"}, {"alias": "bars", "title": "Bars"}, {"alias": "tapas", "title": "Tapas Bars"}], "rating": 4.5, "coordinates": {"latitude": 40.7395018010206, "longitude": -73.9990556562659}, "transactions": [], "price": "$$", "location": {"address1": "84 7th Ave", "address2": null, "address3": "", "city": "New York", "zip_code": "10011", "country": "US", "state": "NY", "display_address": ["84 7th Ave", "New York, NY 10011"]}, "phone": "+12122291888", "display_phone": "(212) 229-1888", "distance": 3797.9399070899576}, {"id": "da-umberto-new-york-2", "name": "da Umberto", "image_url": "https://s3-media4.fl.yelpcdn.com/bphoto/YHxGk19NWa3w4gPTI-hZTg/o.jpg", "is_closed": false, "url": "https://www.yelp.com/biz/da-umberto-new-york-2?adjust_creative=pY8zJUWQtPjP9LVSrcR4eg&utm_campaign=yelp_api_v3&utm_medium=api_v3_business_search&utm_source=pY8zJUWQtPjP9LVSrcR4eg", "review_count": 139, "categories": [{"alias": "italian", "title": "Italian"}], "rating": 4.0, "coordinates": {"latitude": 40.7396659851074, "longitude": -73.9958267211914}, "transactions": [], "price": "$$$", "location": {"address1": "107 W 17th St", "address2": null, "address3": "", "city": "New York", "zip_code": "10011", "country": "US", "state": "NY", "display_address": ["107 W 17th St", "New York, NY 10011"]}, "phone": "+12129890303", "display_phone": "(212) 989-0303", "distance": 3808.07386039784}, {"id": "babbalucci-new-york", "name": "Babbalucci", "image_url": "https://s3-media4.fl.yelpcdn.com/bphoto/L4E3RnGmADOUTWM-C5PEIw/o.jpg", "is_closed": false, "url": "https://www.yelp.com/biz/babbalucci-new-york?adjust_creative=pY8zJUWQtPjP9LVSrcR4eg&utm_campaign=yelp_api_v3&utm_medium=api_v3_business_search&utm_source=pY8zJUWQtPjP9LVSrcR4eg", "review_count": 272, "categories": [{"alias": "italian", "title": "Italian"}], "rating": 4.0, "coordinates": {"latitude": 40.808854624629, "longitude": -73.9448426663876}, "transactions": ["delivery", "pickup"], "price": "$$", "location": {"address1": "331 Lenox Ave", "address2": "", "address3": "", "city": "New York", "zip_code": "10027", "country": "US", "state": "NY", "display_address": ["331 Lenox Ave", "New York, NY 10027"]}, "phone": "+16469186572", "display_phone": "(646) 918-6572", "distance": 12235.445794083447}, {"id": "lillo-cucina-italiana-brooklyn", "name": "Lillo Cucina Italiana", "image_url": "https://s3-media3.fl.yelpcdn.com/bphoto/v3H3_KWqxhRCzS-y02XV_w/o.jpg", "is_closed": false, "url": "https://www.yelp.com/biz/lillo-cucina-italiana-brooklyn?adjust_creative=pY8zJUWQtPjP9LVSrcR4eg&utm_campaign=yelp_api_v3&utm_medium=api_v3_business_search&utm_source=pY8zJUWQtPjP9LVSrcR4eg", "review_count": 15, "categories": [{"alias": "cafes", "title": "Cafes"}, {"alias": "coffee", "title": "Coffee & Tea"}, {"alias": "italian", "title": "Italian"}], "rating": 5.0, "coordinates": {"latitude": 40.69019, "longitude": -73.996208}, "transactions": [], "price": "$", "location": {"address1": "331 Henry St", "address2": null, "address3": "", "city": "Brooklyn", "zip_code": "11201", "country": "US", "state": "NY", "display_address": ["331 Henry St", "Brooklyn, NY 11201"]}, "phone": "+13477630899", "display_phone": "(347) 763-0899", "distance": 1700.8110278510858}, {"id": "passatempo-brooklyn", "name": "Passatempo", "image_url": "https://s3-media3.fl.yelpcdn.com/bphoto/jKDTeM6sIRRLAPSKU_y7Ag/o.jpg", "is_closed": false, "url": "https://www.yelp.com/biz/passatempo-brooklyn?adjust_creative=pY8zJUWQtPjP9LVSrcR4eg&utm_campaign=yelp_api_v3&utm_medium=api_v3_business_search&utm_source=pY8zJUWQtPjP9LVSrcR4eg", "review_count": 4, "categories": [{"alias": "wine_bars", "title": "Wine Bars"}, {"alias": "coffee", "title": "Coffee & Tea"}, {"alias": "italian", "title": "Italian"}], "rating": 5.0, "coordinates": {"latitude": 40.71583, "longitude": -73.96419}, "transactions": [], "location": {"address1": "77 Grand St", "address2": "", "address3": null, "city": "Brooklyn", "zip_code": "11249", "country": "US", "state": "NY", "display_address": ["77 Grand St", "Brooklyn, NY 11249"]}, "phone": "+17183881999", "display_phone": "(718) 388-1999", "distance": 2787.973439485372}, {"id": "villa-berulia-new-york", "name": "Villa Berulia", "image_url": "https://s3-media1.fl.yelpcdn.com/bphoto/ISrDFmDIgmLaklUOVYs0CA/o.jpg", "is_closed": false, "url": "https://www.yelp.com/biz/villa-berulia-new-york?adjust_creative=pY8zJUWQtPjP9LVSrcR4eg&utm_campaign=yelp_api_v3&utm_medium=api_v3_business_search&utm_source=pY8zJUWQtPjP9LVSrcR4eg", "review_count": 125, "categories": [{"alias": "italian", "title": "Italian"}], "rating": 4.0, "coordinates": {"latitude": 40.7467827, "longitude": -73.9806507}, "transactions": ["delivery", "pickup", "restaurant_reservation"], "price": "$$$", "location": {"address1": "107 E 34th St", "address2": "", "address3": "", "city": "New York", "zip_code": "10016", "country": "US", "state": "NY", "display_address": ["107 E 34th St", "New York, NY 10016"]}, "phone": "+12126891970", "display_phone": "(212) 689-1970", "distance": 4738.13498540935}, {"id": "adelinas-brooklyn", "name": "Adelina's", "image_url": "https://s3-media3.fl.yelpcdn.com/bphoto/1In2efKl9Bju09_Z-40EDA/o.jpg", "is_closed": false, "url": "https://www.yelp.com/biz/adelinas-brooklyn?adjust_creative=pY8zJUWQtPjP9LVSrcR4eg&utm_campaign=yelp_api_v3&utm_medium=api_v3_business_search&utm_source=pY8zJUWQtPjP9LVSrcR4eg", "review_count": 137, "categories": [{"alias": "italian", "title": "Italian"}, {"alias": "wine_bars", "title": "Wine Bars"}, {"alias": "vegan", "title": "Vegan"}], "rating": 4.0, "coordinates": {"latitude": 40.730495, "longitude": -73.9533809}, "transactions": ["delivery", "pickup", "restaurant_reservation"], "price": "$$", "location": {"address1": "159 Greenpoint Ave", "address2": "", "address3": "", "city": "Brooklyn", "zip_code": "11222", "country": "US", "state": "NY", "display_address": ["159 Greenpoint Ave", "Brooklyn, NY 11222"]}, "phone": "+13477630152", "display_phone": "(347) 763-0152", "distance": 4432.540962691522}, {"id": "la-palina-restaurtant-brooklyn", "name": "La Palina Restaurtant", "image_url": "https://s3-media4.fl.yelpcdn.com/bphoto/OTw5vixo62sCW9mxv4eMRQ/o.jpg", "is_closed": false, "url": "https://www.yelp.com/biz/la-palina-restaurtant-brooklyn?adjust_creative=pY8zJUWQtPjP9LVSrcR4eg&utm_campaign=yelp_api_v3&utm_medium=api_v3_business_search&utm_source=pY8zJUWQtPjP9LVSrcR4eg", "review_count": 138, "categories": [{"alias": "italian", "title": "Italian"}], "rating": 4.0, "coordinates": {"latitude": 40.6109099, "longitude": -73.97885}, "transactions": ["restaurant_reservation"], "price": "$$", "location": {"address1": "159 Ave O", "address2": "", "address3": "", "city": "Brooklyn", "zip_code": "11204", "country": "US", "state": "NY", "display_address": ["159 Ave O", "Brooklyn, NY 11204"]}, "phone": "+17182369764", "display_phone": "(718) 236-9764", "distance": 10606.352794674145}, {"id": "mimmo-cucina-italiana-new-york", "name": "Mimmo Cucina Italiana", "image_url": "https://s3-media3.fl.yelpcdn.com/bphoto/9S4AGqaH1wE3WJfDSD0FuQ/o.jpg", "is_closed": false, "url": "https://www.yelp.com/biz/mimmo-cucina-italiana-new-york?adjust_creative=pY8zJUWQtPjP9LVSrcR4eg&utm_campaign=yelp_api_v3&utm_medium=api_v3_business_search&utm_source=pY8zJUWQtPjP9LVSrcR4eg", "review_count": 17, "categories": [{"alias": "pizza", "title": "Pizza"}, {"alias": "italian", "title": "Italian"}, {"alias": "wine_bars", "title": "Wine Bars"}], "rating": 4.0, "coordinates": {"latitude": 40.77764, "longitude": -73.94565}, "transactions": ["delivery", "pickup"], "price": "$$$", "location": {"address1": "1690 York Ave", "address2": "", "address3": null, "city": "New York", "zip_code": "10128", "country": "US", "state": "NY", "display_address": ["1690 York Ave", "New York, NY 10128"]}, "phone": "+19174095820", "display_phone": "(917) 409-5820", "distance": 9011.674765923673}, {"id": "bistango-new-york-8", "name": "Bistango", "image_url": "https://s3-media4.fl.yelpcdn.com/bphoto/Lstq4f1Xxf-t4q3wkpEfBw/o.jpg", "is_closed": false, "url": "https://www.yelp.com/biz/bistango-new-york-8?adjust_creative=pY8zJUWQtPjP9LVSrcR4eg&utm_campaign=yelp_api_v3&utm_medium=api_v3_business_search&utm_source=pY8zJUWQtPjP9LVSrcR4eg", "review_count": 170, "categories": [{"alias": "italian", "title": "Italian"}, {"alias": "gluten_free", "title": "Gluten-Free"}, {"alias": "cocktailbars", "title": "Cocktail Bars"}], "rating": 4.0, "coordinates": {"latitude": 40.75628, "longitude": -73.97144}, "transactions": ["delivery", "pickup", "restaurant_reservation"], "price": "$$", "location": {"address1": "145 E 50th St", "address2": "", "address3": "The Kimberly Hotel", "city": "New York", "zip_code": "10022", "country": "US", "state": "NY", "display_address": ["145 E 50th St", "The Kimberly Hotel", "New York, NY 10022"]}, "phone": "+12128884121", "display_phone": "(212) 888-4121", "distance": 5979.26129497036}, {"id": "pisillo-italian-panini-new-york", "name": "Pisillo Italian Panini", "image_url": "https://s3-media1.fl.yelpcdn.com/bphoto/UoXfEVuKgp70xc7s3AxRAA/o.jpg", "is_closed": false, "url": "https://www.yelp.com/biz/pisillo-italian-panini-new-york?adjust_creative=pY8zJUWQtPjP9LVSrcR4eg&utm_campaign=yelp_api_v3&utm_medium=api_v3_business_search&utm_source=pY8zJUWQtPjP9LVSrcR4eg", "review_count": 444, "categories": [{"alias": "italian", "title": "Italian"}, {"alias": "sandwiches", "title": "Sandwiches"}], "rating": 4.5, "coordinates": {"latitude": 40.7104975, "longitude": -74.0076675}, "transactions": ["delivery", "pickup"], "price": "$$", "location": {"address1": "97 Nassau St", "address2": "", "address3": "", "city": "New York", "zip_code": "10038", "country": "US", "state": "NY", "display_address": ["97 Nassau St", "New York, NY 10038"]}, "phone": "+12122273104", "display_phone": "(212) 227-3104", "distance": 1258.362154438504}, {"id": "anthonys-place-brooklyn", "name": "Anthony's Place", "image_url": "https://s3-media4.fl.yelpcdn.com/bphoto/IuPUBzM-UpUgG6YktNLjjw/o.jpg", "is_closed": false, "url": "https://www.yelp.com/biz/anthonys-place-brooklyn?adjust_creative=pY8zJUWQtPjP9LVSrcR4eg&utm_campaign=yelp_api_v3&utm_medium=api_v3_business_search&utm_source=pY8zJUWQtPjP9LVSrcR4eg", "review_count": 138, "categories": [{"alias": "italian", "title": "Italian"}], "rating": 4.0, "coordinates": {"latitude": 40.5928522, "longitude": -73.9505447}, "transactions": [], "price": "$$", "location": {"address1": "2812 Ocean Ave", "address2": null, "address3": "", "city": "Brooklyn", "zip_code": "11229", "country": "US", "state": "NY", "display_address": ["2812 Ocean Ave", "Brooklyn, NY 11229"]}, "phone": "+17187438099", "display_phone": "(718) 743-8099", "distance": 13052.419399390013}, {"id": "graziellas-brooklyn-11", "name": "Graziella's", "image_url": "https://s3-media2.fl.yelpcdn.com/bphoto/5iv0jQ7CkcY_l4ktnlqFNg/o.jpg", "is_closed": false, "url": "https://www.yelp.com/biz/graziellas-brooklyn-11?adjust_creative=pY8zJUWQtPjP9LVSrcR4eg&utm_campaign=yelp_api_v3&utm_medium=api_v3_business_search&utm_source=pY8zJUWQtPjP9LVSrcR4eg", "review_count": 346, "categories": [{"alias": "italian", "title": "Italian"}, {"alias": "pizza", "title": "Pizza"}, {"alias": "bars", "title": "Bars"}], "rating": 4.0, "coordinates": {"latitude": 40.6904563903809, "longitude": -73.9696273803711}, "transactions": ["delivery", "pickup"], "price": "$$", "location": {"address1": "232 Vanderbilt Ave", "address2": null, "address3": "", "city": "Brooklyn", "zip_code": "11205", "country": "US", "state": "NY", "display_address": ["232 Vanderbilt Ave", "Brooklyn, NY 11205"]}, "phone": "+17187895663", "display_phone": "(718) 789-5663", "distance": 2664.287869509498}, {"id": "follia-nyc-new-york", "name": "Follia NYC", "image_url": "https://s3-media3.fl.yelpcdn.com/bphoto/75toimyu0V5CbZTCwp9ltw/o.jpg", "is_closed": false, "url": "https://www.yelp.com/biz/follia-nyc-new-york?adjust_creative=pY8zJUWQtPjP9LVSrcR4eg&utm_campaign=yelp_api_v3&utm_medium=api_v3_business_search&utm_source=pY8zJUWQtPjP9LVSrcR4eg", "review_count": 72, "categories": [{"alias": "wine_bars", "title": "Wine Bars"}, {"alias": "italian", "title": "Italian"}, {"alias": "pizza", "title": "Pizza"}], "rating": 4.0, "coordinates": {"latitude": 40.7349243164062, "longitude": -73.9855880737305}, "transactions": ["delivery", "pickup"], "price": "$$", "location": {"address1": "179 3rd Ave", "address2": "", "address3": null, "city": "New York", "zip_code": "10003", "country": "US", "state": "NY", "display_address": ["179 3rd Ave", "New York, NY 10003"]}, "phone": "+12124774100", "display_phone": "(212) 477-4100", "distance": 3359.1268164640182}, {"id": "barbuto-new-york", "name": "Barbuto", "image_url": "https://s3-media1.fl.yelpcdn.com/bphoto/gHMLYccomz_9bZ_3AbV-nw/o.jpg", "is_closed": false, "url": "https://www.yelp.com/biz/barbuto-new-york?adjust_creative=pY8zJUWQtPjP9LVSrcR4eg&utm_campaign=yelp_api_v3&utm_medium=api_v3_business_search&utm_source=pY8zJUWQtPjP9LVSrcR4eg", "review_count": 806, "categories": [{"alias": "italian", "title": "Italian"}, {"alias": "newamerican", "title": "American (New)"}], "rating": 4.0, "coordinates": {"latitude": 40.7377203192966, "longitude": -74.0080020711638}, "transactions": ["restaurant_reservation"], "price": "$$$", "location": {"address1": "775 Washington St", "address2": null, "address3": "", "city": "New York", "zip_code": "10014", "country": "US", "state": "NY", "display_address": ["775 Washington St", "New York, NY 10014"]}, "phone": "+12129249700", "display_phone": "(212) 924-9700", "distance": 3770.229762301768}, {"id": "osteria-al-doge-new-york", "name": "Osteria Al Doge", "image_url": "https://s3-media3.fl.yelpcdn.com/bphoto/_yaBhf_sNZAWkO-ex_2SPg/o.jpg", "is_closed": false, "url": "https://www.yelp.com/biz/osteria-al-doge-new-york?adjust_creative=pY8zJUWQtPjP9LVSrcR4eg&utm_campaign=yelp_api_v3&utm_medium=api_v3_business_search&utm_source=pY8zJUWQtPjP9LVSrcR4eg", "review_count": 376, "categories": [{"alias": "italian", "title": "Italian"}, {"alias": "desserts", "title": "Desserts"}, {"alias": "pizza", "title": "Pizza"}], "rating": 4.0, "coordinates": {"latitude": 40.75662, "longitude": -73.9849}, "transactions": ["delivery", "pickup"], "price": "$$$", "location": {"address1": "142 W 44th St", "address2": "", "address3": "", "city": "New York", "zip_code": "10036", "country": "US", "state": "NY", "display_address": ["142 W 44th St", "New York, NY 10036"]}, "phone": "+12129443643", "display_phone": "(212) 944-3643", "distance": 5745.346611034178}, {"id": "la-vigna-restaurant-forest-hills", "name": "La Vigna Restaurant", "image_url": "https://s3-media2.fl.yelpcdn.com/bphoto/QDjtvze50UlXU8Qy1H22Qg/o.jpg", "is_closed": false, "url": "https://www.yelp.com/biz/la-vigna-restaurant-forest-hills?adjust_creative=pY8zJUWQtPjP9LVSrcR4eg&utm_campaign=yelp_api_v3&utm_medium=api_v3_business_search&utm_source=pY8zJUWQtPjP9LVSrcR4eg", "review_count": 154, "categories": [{"alias": "italian", "title": "Italian"}], "rating": 4.0, "coordinates": {"latitude": 40.71098, "longitude": -73.85272}, "transactions": ["restaurant_reservation"], "price": "$$", "location": {"address1": "10011 Metropolitan Ave", "address2": "", "address3": "", "city": "Forest Hills", "zip_code": "11375", "country": "US", "state": "NY", "display_address": ["10011 Metropolitan Ave", "Forest Hills, NY 11375"]}, "phone": "+17182684264", "display_phone": "(718) 268-4264", "distance": 11949.134903201435}, {"id": "le-fanfare-brooklyn-4", "name": "Le Fanfare", "image_url": "https://s3-media2.fl.yelpcdn.com/bphoto/HH31aobEpQnFNGhESvouBg/o.jpg", "is_closed": false, "url": "https://www.yelp.com/biz/le-fanfare-brooklyn-4?adjust_creative=pY8zJUWQtPjP9LVSrcR4eg&utm_campaign=yelp_api_v3&utm_medium=api_v3_business_search&utm_source=pY8zJUWQtPjP9LVSrcR4eg", "review_count": 118, "categories": [{"alias": "italian", "title": "Italian"}, {"alias": "wine_bars", "title": "Wine Bars"}, {"alias": "cocktailbars", "title": "Cocktail Bars"}], "rating": 4.0, "coordinates": {"latitude": 40.736202, "longitude": -73.955558}, "transactions": ["restaurant_reservation", "delivery", "pickup"], "price": "$$", "location": {"address1": "1103 Manhattan Ave", "address2": "", "address3": "", "city": "Brooklyn", "zip_code": "11222", "country": "US", "state": "NY", "display_address": ["1103 Manhattan Ave", "Brooklyn, NY 11222"]}, "phone": "+13479874244", "display_phone": "(347) 987-4244", "distance": 4727.862128678596}, {"id": "mandolino-new-york", "name": "Mandolino", "image_url": "https://s3-media3.fl.yelpcdn.com/bphoto/xIKKKOG67PkO72Z5gtukEw/o.jpg", "is_closed": false, "url": "https://www.yelp.com/biz/mandolino-new-york?adjust_creative=pY8zJUWQtPjP9LVSrcR4eg&utm_campaign=yelp_api_v3&utm_medium=api_v3_business_search&utm_source=pY8zJUWQtPjP9LVSrcR4eg", "review_count": 94, "categories": [{"alias": "pizza", "title": "Pizza"}, {"alias": "italian", "title": "Italian"}, {"alias": "breakfast_brunch", "title": "Breakfast & Brunch"}], "rating": 4.0, "coordinates": {"latitude": 40.732940268543, "longitude": -73.9882786944509}, "transactions": ["delivery", "pickup", "restaurant_reservation"], "price": "$$", "location": {"address1": "137 E 13th St", "address2": "", "address3": null, "city": "New York", "zip_code": "10003", "country": "US", "state": "NY", "display_address": ["137 E 13th St", "New York, NY 10003"]}, "phone": "+12124771535", "display_phone": "(212) 477-1535", "distance": 3099.079476326102}, {"id": "lavagna-new-york", "name": "Lavagna", "image_url": "https://s3-media4.fl.yelpcdn.com/bphoto/HtbVRtgaxzrLfImGh85eHw/o.jpg", "is_closed": false, "url": "https://www.yelp.com/biz/lavagna-new-york?adjust_creative=pY8zJUWQtPjP9LVSrcR4eg&utm_campaign=yelp_api_v3&utm_medium=api_v3_business_search&utm_source=pY8zJUWQtPjP9LVSrcR4eg", "review_count": 329, "categories": [{"alias": "italian", "title": "Italian"}, {"alias": "bars", "title": "Bars"}], "rating": 4.0, "coordinates": {"latitude": 40.72406, "longitude": -73.98226}, "transactions": ["restaurant_reservation"], "price": "$$$", "location": {"address1": "545 E 5th St", "address2": "", "address3": "", "city": "New York", "zip_code": "10009", "country": "US", "state": "NY", "display_address": ["545 E 5th St", "New York, NY 10009"]}, "phone": "+12129791005", "display_phone": "(212) 979-1005", "distance": 2305.428527205154}, {"id": "da-franco-and-tony-ristorante-bronx", "name": "Da Franco & Tony Ristorante", "image_url": "https://s3-media2.fl.yelpcdn.com/bphoto/yBxQn79i4yLIMtxJhbVXKQ/o.jpg", "is_closed": false, "url": "https://www.yelp.com/biz/da-franco-and-tony-ristorante-bronx?adjust_creative=pY8zJUWQtPjP9LVSrcR4eg&utm_campaign=yelp_api_v3&utm_medium=api_v3_business_search&utm_source=pY8zJUWQtPjP9LVSrcR4eg", "review_count": 61, "categories": [{"alias": "italian", "title": "Italian"}], "rating": 4.5, "coordinates": {"latitude": 40.843635, "longitude": -73.836135}, "transactions": ["pickup", "delivery"], "price": "$$", "location": {"address1": "2815 Middletown Rd", "address2": "", "address3": "", "city": "Bronx", "zip_code": "10461", "country": "US", "state": "NY", "display_address": ["2815 Middletown Rd", "Bronx, NY 10461"]}, "phone": "+17186842815", "display_phone": "(718) 684-2815", "distance": 20334.591651743223}, {"id": "mi-garba-new-york", "name": "Mi Garba", "image_url": "https://s3-media3.fl.yelpcdn.com/bphoto/xiNGIiuqQ8k4kws5Kj49Fw/o.jpg", "is_closed": false, "url": "https://www.yelp.com/biz/mi-garba-new-york?adjust_creative=pY8zJUWQtPjP9LVSrcR4eg&utm_campaign=yelp_api_v3&utm_medium=api_v3_business_search&utm_source=pY8zJUWQtPjP9LVSrcR4eg", "review_count": 83, "categories": [{"alias": "italian", "title": "Italian"}, {"alias": "wine_bars", "title": "Wine Bars"}], "rating": 4.0, "coordinates": {"latitude": 40.733253210783, "longitude": -73.9898487925529}, "transactions": ["pickup"], "price": "$$", "location": {"address1": "129 4th Ave", "address2": "", "address3": "", "city": "New York", "zip_code": "10003", "country": "US", "state": "NY", "display_address": ["129 4th Ave", "New York, NY 10003"]}, "phone": "+16466844797", "display_phone": "(646) 684-4797", "distance": 3117.2155695843276}, {"id": "barosa-rego-park", "name": "Barosa", "image_url": "https://s3-media4.fl.yelpcdn.com/bphoto/BHgoa1NyBpyZKIB4FHjX1Q/o.jpg", "is_closed": false, "url": "https://www.yelp.com/biz/barosa-rego-park?adjust_creative=pY8zJUWQtPjP9LVSrcR4eg&utm_campaign=yelp_api_v3&utm_medium=api_v3_business_search&utm_source=pY8zJUWQtPjP9LVSrcR4eg", "review_count": 272, "categories": [{"alias": "italian", "title": "Italian"}, {"alias": "seafood", "title": "Seafood"}, {"alias": "pizza", "title": "Pizza"}], "rating": 3.5, "coordinates": {"latitude": 40.7261576942186, "longitude": -73.8698450511809}, "transactions": ["delivery"], "price": "$$", "location": {"address1": "62-29 Woodhaven Blvd", "address2": "", "address3": "", "city": "Rego Park", "zip_code": "11374", "country": "US", "state": "NY", "display_address": ["62-29 Woodhaven Blvd", "Rego Park, NY 11374"]}, "phone": "+17184241455", "display_phone": "(718) 424-1455", "distance": 10738.460108784167}, {"id": "non-solo-piada-new-york", "name": "Non Solo Piada", "image_url": "https://s3-media4.fl.yelpcdn.com/bphoto/7LHq_qLts0uoyZqV8MCuMA/o.jpg", "is_closed": false, "url": "https://www.yelp.com/biz/non-solo-piada-new-york?adjust_creative=pY8zJUWQtPjP9LVSrcR4eg&utm_campaign=yelp_api_v3&utm_medium=api_v3_business_search&utm_source=pY8zJUWQtPjP9LVSrcR4eg", "review_count": 164, "categories": [{"alias": "italian", "title": "Italian"}, {"alias": "breakfast_brunch", "title": "Breakfast & Brunch"}, {"alias": "piadina", "title": "Piadina"}], "rating": 5.0, "coordinates": {"latitude": 40.75414, "longitude": -73.99245}, "transactions": ["delivery", "pickup"], "price": "$", "location": {"address1": "302 W 37th St", "address2": "", "address3": null, "city": "New York", "zip_code": "10018", "country": "US", "state": "NY", "display_address": ["302 W 37th St", "New York, NY 10018"]}, "phone": "+12122160616", "display_phone": "(212) 216-0616", "distance": 5409.339088358352}], "total": 7700, "region": {"center": {"longitude": -73.9942932129, "latitude": 40.7054448644}}}