{"businesses": [{"id": "el-kallejon-new-york", "name": "El Kallejon", "image_url": "https://s3-media1.fl.yelpcdn.com/bphoto/dnlKonWCQHehl3faj89Xmg/o.jpg", "is_closed": false, "url": "https://www.yelp.com/biz/el-kallejon-new-york?adjust_creative=pY8zJUWQtPjP9LVSrcR4eg&utm_campaign=yelp_api_v3&utm_medium=api_v3_business_search&utm_source=pY8zJUWQtPjP9LVSrcR4eg", "review_count": 203, "categories": [{"alias": "tapas", "title": "Tapas Bars"}, {"alias": "mexican", "title": "Mexican"}, {"alias": "cocktailbars", "title": "Cocktail Bars"}], "rating": 4.5, "coordinates": {"latitude": 40.798538, "longitude": -73.938805}, "transactions": [], "price": "$$", "location": {"address1": "209 E 117th St", "address2": null, "address3": null, "city": "New York", "zip_code": "10035", "country": "US", "state": "NY", "display_address": ["209 E 117th St", "New York, NY 10035"]}, "phone": "+16466494795", "display_phone": "(646) 649-4795", "distance": 11357.798802456027}, {"id": "pampano-new-york", "name": "Pampano", "image_url": "https://s3-media1.fl.yelpcdn.com/bphoto/ERo8grvcmIrhNb_KX6kVTA/o.jpg", "is_closed": false, "url": "https://www.yelp.com/biz/pampano-new-york?adjust_creative=pY8zJUWQtPjP9LVSrcR4eg&utm_campaign=yelp_api_v3&utm_medium=api_v3_business_search&utm_source=pY8zJUWQtPjP9LVSrcR4eg", "review_count": 512, "categories": [{"alias": "mexican", "title": "Mexican"}, {"alias": "latin", "title": "Latin American"}], "rating": 4.0, "coordinates": {"latitude": 40.75503, "longitude": -73.97054}, "transactions": [], "price": "$$$", "location": {"address1": "209 E 49th St", "address2": "", "address3": "", "city": "New York", "zip_code": "10017", "country": "US", "state": "NY", "display_address": ["209 E 49th St", "New York, NY 10017"]}, "phone": "+12127514545", "display_phone": "(212) 751-4545", "distance": 5865.144825068071}, {"id": "tacombi-flatiron-new-york-3", "name": "Tacombi - Flatiron", "image_url": "https://s3-media3.fl.yelpcdn.com/bphoto/uPzV1NmctLUAlTAN4-V8dw/o.jpg", "is_closed": false, "url": "https://www.yelp.com/biz/tacombi-flatiron-new-york-3?adjust_creative=pY8zJUWQtPjP9LVSrcR4eg&utm_campaign=yelp_api_v3&utm_medium=api_v3_business_search&utm_source=pY8zJUWQtPjP9LVSrcR4eg", "review_count": 475, "categories": [{"alias": "mexican", "title": "Mexican"}, {"alias": "coffee", "title": "Coffee & Tea"}], "rating": 3.5, "coordinates": {"latitude": 40.7428563, "longitude": -73.9911656}, "transactions": ["delivery", "pickup"], "price": "$$", "location": {"address1": "30 W 24th St", "address2": "", "address3": "", "city": "New York", "zip_code": "10010", "country": "US", "state": "NY", "display_address": ["30 W 24th St", "New York, NY 10010"]}, "phone": "+12122423491", "display_phone": "(212) 242-3491", "distance": 4168.298219301678}, {"id": "dos-toros-taqueria-brooklyn-3", "name": "Dos Toros Taqueria", "image_url": "https://s3-media1.fl.yelpcdn.com/bphoto/GXj0aGz9IdzeFfSI95tAvg/o.jpg", "is_closed": false, "url": "https://www.yelp.com/biz/dos-toros-taqueria-brooklyn-3?adjust_creative=pY8zJUWQtPjP9LVSrcR4eg&utm_campaign=yelp_api_v3&utm_medium=api_v3_business_search&utm_source=pY8zJUWQtPjP9LVSrcR4eg", "review_count": 62, "categories": [{"alias": "mexican", "title": "Mexican"}], "rating": 4.0, "coordinates": {"latitude": 40.6920649351928, "longitude": -73.9914631471038}, "transactions": ["delivery", "pickup"], "price": "$$", "location": {"address1": "64 Court St", "address2": "", "address3": "", "city": "Brooklyn", "zip_code": "11201", "country": "US", "state": "NY", "display_address": ["64 Court St", "Brooklyn, NY 11201"]}, "phone": "+13474973339", "display_phone": "(347) 497-3339", "distance": 1506.786619490302}, {"id": "las-margaritas-restaurant-and-bar-queens", "name": "Las Margaritas Restaurant & Bar", "image_url": "https://s3-media1.fl.yelpcdn.com/bphoto/dF9iUYgEPu4qciSR1R317w/o.jpg", "is_closed": false, "url": "https://www.yelp.com/biz/las-margaritas-restaurant-and-bar-queens?adjust_creative=pY8zJUWQtPjP9LVSrcR4eg&utm_campaign=yelp_api_v3&utm_medium=api_v3_business_search&utm_source=pY8zJUWQtPjP9LVSrcR4eg", "review_count": 29, "categories": [{"alias": "mexican", "title": "Mexican"}, {"alias": "chicken_wings", "title": "Chicken Wings"}], "rating": 4.0, "coordinates": {"latitude": 40.70541, "longitude": -73.89673}, "transactions": ["delivery", "pickup"], "price": "$$", "location": {"address1": "6712 Fresh Pond Rd", "address2": "", "address3": null, "city": "Queens", "zip_code": "11385", "country": "US", "state": "NY", "display_address": ["6712 Fresh Pond Rd", "Queens, NY 11385"]}, "phone": "+17184174040", "display_phone": "(718) 417-4040", "distance": 8223.714232701988}, {"id": "tacos-el-nopal-brooklyn-2", "name": "Tacos El Nopal", "image_url": "https://s3-media4.fl.yelpcdn.com/bphoto/BHzDZMEdSM3DGCM6zPYyyw/o.jpg", "is_closed": false, "url": "https://www.yelp.com/biz/tacos-el-nopal-brooklyn-2?adjust_creative=pY8zJUWQtPjP9LVSrcR4eg&utm_campaign=yelp_api_v3&utm_medium=api_v3_business_search&utm_source=pY8zJUWQtPjP9LVSrcR4eg", "review_count": 17, "categories": [{"alias": "mexican", "title": "Mexican"}, {"alias": "burgers", "title": "Burgers"}, {"alias": "seafood", "title": "Seafood"}], "rating": 4.0, "coordinates": {"latitude": 40.6228991, "longitude": -74.02505}, "transactions": ["delivery", "pickup"], "price": "$$", "location": {"address1": "8321 5th Ave", "address2": "", "address3": null, "city": "Brooklyn", "zip_code": "11209", "country": "US", "state": "NY", "display_address": ["8321 5th Ave", "Brooklyn, NY 11209"]}, "phone": "+13475787461", "display_phone": "(347) 578-7461", "distance": 9538.224147964544}, {"id": "la-cueva-fonda-mexicana-bronx", "name": "La Cueva Fonda Mexicana", "image_url": "https://s3-media1.fl.yelpcdn.com/bphoto/skA3ttjGXLn8SuCCVtqA7g/o.jpg", "is_closed": false, "url": "https://www.yelp.com/biz/la-cueva-fonda-mexicana-bronx?adjust_creative=pY8zJUWQtPjP9LVSrcR4eg&utm_campaign=yelp_api_v3&utm_medium=api_v3_business_search&utm_source=pY8zJUWQtPjP9LVSrcR4eg", "review_count": 12, "categories": [{"alias": "mexican", "title": "Mexican"}], "rating": 4.5, "coordinates": {"latitude": 40.81533, "longitude": -73.90412}, "transactions": ["delivery", "pickup"], "location": {"address1": "835 E 152nd St", "address2": "", "address3": null, "city": "Bronx", "zip_code": "10455", "country": "US", "state": "NY", "display_address": ["835 E 152nd St", "Bronx, NY 10455"]}, "phone": "+13475900570", "display_phone": "(347) 590-0570", "distance": 14383.667778197136}, {"id": "calabrijes-margaritas-and-tacos-brooklyn", "name": "Calabrije's Margaritas & Tacos", "image_url": "https://s3-media4.fl.yelpcdn.com/bphoto/2WCNNrLEVxfEOgQcDKVFrA/o.jpg", "is_closed": false, "url": "https://www.yelp.com/biz/calabrijes-margaritas-and-tacos-brooklyn?adjust_creative=pY8zJUWQtPjP9LVSrcR4eg&utm_campaign=yelp_api_v3&utm_medium=api_v3_business_search&utm_source=pY8zJUWQtPjP9LVSrcR4eg", "review_count": 18, "categories": [{"alias": "tacos", "title": "Tacos"}, {"alias": "cocktailbars", "title": "Cocktail Bars"}], "rating": 4.5, "coordinates": {"latitude": 40.7055429619569, "longitude": -73.9225539192783}, "transactions": [], "price": "$", "location": {"address1": "234 Starr St", "address2": "", "address3": null, "city": "Brooklyn", "zip_code": "11237", "country": "US", "state": "NY", "display_address": ["234 Starr St", "Brooklyn, NY 11237"]}, "phone": "+17184842110", "display_phone": "(718) 484-2110", "distance": 6047.176237018715}, {"id": "maizal-restaurant-staten-island-2", "name": "Maizal Restaurant", "image_url": "https://s3-media1.fl.yelpcdn.com/bphoto/MqYN_NtXai0SrpZrxrwr5g/o.jpg", "is_closed": false, "url": "https://www.yelp.com/biz/maizal-restaurant-staten-island-2?adjust_creative=pY8zJUWQtPjP9LVSrcR4eg&utm_campaign=yelp_api_v3&utm_medium=api_v3_business_search&utm_source=pY8zJUWQtPjP9LVSrcR4eg", "review_count": 204, "categories": [{"alias": "mexican", "title": "Mexican"}, {"alias": "bars", "title": "Bars"}], "rating": 4.0, "coordinates": {"latitude": 40.61831, "longitude": -74.06958}, "transactions": ["pickup", "restaurant_reservation"], "price": "$$", "location": {"address1": "990 Bay St", "address2": "", "address3": "", "city": "Staten Island", "zip_code": "10305", "country": "US", "state": "NY", "display_address": ["990 Bay St", "Staten Island, NY 10305"]}, "phone": "+13478253776", "display_phone": "(347) 825-3776", "distance": 11580.764989783427}, {"id": "blue-agave-mexican-restaurant-and-bar-brooklyn", "name": "Blue Agave Mexican Restaurant & Bar", "image_url": "https://s3-media3.fl.yelpcdn.com/bphoto/exH-pHLZSDpCI2DmFbfznA/o.jpg", "is_closed": false, "url": "https://www.yelp.com/biz/blue-agave-mexican-restaurant-and-bar-brooklyn?adjust_creative=pY8zJUWQtPjP9LVSrcR4eg&utm_campaign=yelp_api_v3&utm_medium=api_v3_business_search&utm_source=pY8zJUWQtPjP9LVSrcR4eg", "review_count": 90, "categories": [{"alias": "mexican", "title": "Mexican"}, {"alias": "bars", "title": "Bars"}], "rating": 4.0, "coordinates": {"latitude": 40.6178877280414, "longitude": -73.9990214085986}, "transactions": ["delivery", "pickup", "restaurant_reservation"], "price": "$$", "location": {"address1": "7201 16th Ave", "address2": "", "address3": "", "city": "Brooklyn", "zip_code": "11204", "country": "US", "state": "NY", "display_address": ["7201 16th Ave", "Brooklyn, NY 11204"]}, "phone": "+17187585822", "display_phone": "(718) 758-5822", "distance": 9744.06369588163}, {"id": "mexicocina-bronx-3", "name": "Mexicocina", "image_url": "https://s3-media1.fl.yelpcdn.com/bphoto/xYlUp9f6xwmRCDEXaJgFWA/o.jpg", "is_closed": false, "url": "https://www.yelp.com/biz/mexicocina-bronx-3?adjust_creative=pY8zJUWQtPjP9LVSrcR4eg&utm_campaign=yelp_api_v3&utm_medium=api_v3_business_search&utm_source=pY8zJUWQtPjP9LVSrcR4eg", "review_count": 123, "categories": [{"alias": "mexican", "title": "Mexican"}], "rating": 4.0, "coordinates": {"latitude": 40.811884525549, "longitude": -73.90966713749}, "transactions": ["delivery", "pickup"], "price": "$$", "location": {"address1": "503 Jackson Ave", "address2": "", "address3": "", "city": "Bronx", "zip_code": "10455", "country": "US", "state": "NY", "display_address": ["503 Jackson Ave", "Bronx, NY 10455"]}, "phone": "+13474981055", "display_phone": "(347) 498-1055", "distance": 13816.099246623859}, {"id": "el-alto-deli-mexican-food-ridgewood", "name": "El Alto  Deli Mexican Food", "image_url": "https://s3-media3.fl.yelpcdn.com/bphoto/Cy5DFxJ4fCtc8FEad-HxQA/o.jpg", "is_closed": false, "url": "https://www.yelp.com/biz/el-alto-deli-mexican-food-ridgewood?adjust_creative=pY8zJUWQtPjP9LVSrcR4eg&utm_campaign=yelp_api_v3&utm_medium=api_v3_business_search&utm_source=pY8zJUWQtPjP9LVSrcR4eg", "review_count": 11, "categories": [{"alias": "mexican", "title": "Mexican"}, {"alias": "delis", "title": "Delis"}, {"alias": "juicebars", "title": "Juice Bars & Smoothies"}], "rating": 5.0, "coordinates": {"latitude": 40.7131291, "longitude": -73.9053307}, "transactions": [], "price": "$", "location": {"address1": "60-01 Metropolitan Ave", "address2": "Ste 1", "address3": null, "city": "Ridgewood", "zip_code": "11385", "country": "US", "state": "NY", "display_address": ["60-01 Metropolitan Ave", "Ste 1", "Ridgewood, NY 11385"]}, "phone": "+17184561044", "display_phone": "(718) 456-1044", "distance": 7547.071467737943}, {"id": "dos-toros-taqueria-new-york-31", "name": "Dos Toros Taqueria", "image_url": "https://s3-media1.fl.yelpcdn.com/bphoto/G-Nf_B_cmOkDiBA8i5rfAg/o.jpg", "is_closed": false, "url": "https://www.yelp.com/biz/dos-toros-taqueria-new-york-31?adjust_creative=pY8zJUWQtPjP9LVSrcR4eg&utm_campaign=yelp_api_v3&utm_medium=api_v3_business_search&utm_source=pY8zJUWQtPjP9LVSrcR4eg", "review_count": 28, "categories": [{"alias": "mexican", "title": "Mexican"}], "rating": 4.5, "coordinates": {"latitude": 40.7546, "longitude": -73.99194}, "transactions": ["delivery", "pickup"], "price": "$", "location": {"address1": "555 8th Ave", "address2": "", "address3": null, "city": "New York", "zip_code": "10018", "country": "US", "state": "NY", "display_address": ["555 8th Ave", "New York, NY 10018"]}, "phone": "+16464928978", "display_phone": "(646) 492-8978", "distance": 5467.784199413276}, {"id": "anejo-tribeca-new-york-3", "name": "Anejo Tribeca", "image_url": "https://s3-media3.fl.yelpcdn.com/bphoto/uO1bc0R2k4dttzp8vTrOyA/o.jpg", "is_closed": false, "url": "https://www.yelp.com/biz/anejo-tribeca-new-york-3?adjust_creative=pY8zJUWQtPjP9LVSrcR4eg&utm_campaign=yelp_api_v3&utm_medium=api_v3_business_search&utm_source=pY8zJUWQtPjP9LVSrcR4eg", "review_count": 222, "categories": [{"alias": "mexican", "title": "Mexican"}, {"alias": "tapasmallplates", "title": "Tapas/Small Plates"}, {"alias": "tapas", "title": "Tapas Bars"}], "rating": 3.5, "coordinates": {"latitude": 40.7193829, "longitude": -74.004417}, "transactions": ["delivery", "pickup", "restaurant_reservation"], "price": "$$", "location": {"address1": "301 Church St", "address2": "", "address3": "", "city": "New York", "zip_code": "10013", "country": "US", "state": "NY", "display_address": ["301 Church St", "New York, NY 10013"]}, "phone": "+12129206270", "display_phone": "(212) 920-6270", "distance": 1769.2048159807878}, {"id": "monsignors-restaurant-brooklyn", "name": "Monsignor's Restaurant", "image_url": "https://s3-media4.fl.yelpcdn.com/bphoto/00-H_sPxV2XkIXce-Pnxew/o.jpg", "is_closed": false, "url": "https://www.yelp.com/biz/monsignors-restaurant-brooklyn?adjust_creative=pY8zJUWQtPjP9LVSrcR4eg&utm_campaign=yelp_api_v3&utm_medium=api_v3_business_search&utm_source=pY8zJUWQtPjP9LVSrcR4eg", "review_count": 186, "categories": [{"alias": "italian", "title": "Italian"}, {"alias": "mexican", "title": "Mexican"}, {"alias": "desserts", "title": "Desserts"}], "rating": 4.0, "coordinates": {"latitude": 40.661552, "longitude": -73.992823}, "transactions": ["delivery", "pickup", "restaurant_reservation"], "price": "$$", "location": {"address1": "679 5th Ave", "address2": "", "address3": "", "city": "Brooklyn", "zip_code": "11215", "country": "US", "state": "NY", "display_address": ["679 5th Ave", "Brooklyn, NY 11215"]}, "phone": "+17183692575", "display_phone": "(718) 369-2575", "distance": 4882.232623620442}, {"id": "pablitos-taqueria-brooklyn", "name": "Pablito's Taqueria", "image_url": "https://s3-media2.fl.yelpcdn.com/bphoto/edV7PuqruFjF_9tWFO76vQ/o.jpg", "is_closed": false, "url": "https://www.yelp.com/biz/pablitos-taqueria-brooklyn?adjust_creative=pY8zJUWQtPjP9LVSrcR4eg&utm_campaign=yelp_api_v3&utm_medium=api_v3_business_search&utm_source=pY8zJUWQtPjP9LVSrcR4eg", "review_count": 38, "categories": [{"alias": "mexican", "title": "Mexican"}], "rating": 4.0, "coordinates": {"latitude": 40.6601486, "longitude": -73.9941788}, "transactions": ["delivery", "pickup"], "price": "$", "location": {"address1": "723 5th Ave", "address2": "", "address3": "", "city": "Brooklyn", "zip_code": "11215", "country": "US", "state": "NY", "display_address": ["723 5th Ave", "Brooklyn, NY 11215"]}, "phone": "+17184994735", "display_phone": "(718) 499-4735", "distance": 5038.116270885432}, {"id": "sonora-brooklyn", "name": "Sonora", "image_url": "https://s3-media2.fl.yelpcdn.com/bphoto/EzZzfw4YJeCAWe8Q5zWSTg/o.jpg", "is_closed": false, "url": "https://www.yelp.com/biz/sonora-brooklyn?adjust_creative=pY8zJUWQtPjP9LVSrcR4eg&utm_campaign=yelp_api_v3&utm_medium=api_v3_business_search&utm_source=pY8zJUWQtPjP9LVSrcR4eg", "review_count": 49, "categories": [{"alias": "bars", "title": "Bars"}, {"alias": "mexican", "title": "Mexican"}], "rating": 4.0, "coordinates": {"latitude": 40.6824295855403, "longitude": -73.9199669121657}, "transactions": ["delivery", "pickup"], "price": "$$", "location": {"address1": "174 Howard Ave", "address2": "", "address3": null, "city": "Brooklyn", "zip_code": "11233", "country": "US", "state": "NY", "display_address": ["174 Howard Ave", "Brooklyn, NY 11233"]}, "phone": "+17185748100", "display_phone": "(718) 574-8100", "distance": 6760.5933157758}, {"id": "don-nicos-jamaica", "name": "Don Nico's", "image_url": "https://s3-media3.fl.yelpcdn.com/bphoto/dOzblUtlb9lYowgLdDlpqA/o.jpg", "is_closed": false, "url": "https://www.yelp.com/biz/don-nicos-jamaica?adjust_creative=pY8zJUWQtPjP9LVSrcR4eg&utm_campaign=yelp_api_v3&utm_medium=api_v3_business_search&utm_source=pY8zJUWQtPjP9LVSrcR4eg", "review_count": 104, "categories": [{"alias": "mexican", "title": "Mexican"}], "rating": 4.0, "coordinates": {"latitude": 40.7051738351583, "longitude": -73.7993180751801}, "transactions": ["delivery", "pickup"], "price": "$$", "location": {"address1": "90-08 161st St", "address2": "", "address3": "", "city": "Jamaica", "zip_code": "11432", "country": "US", "state": "NY", "display_address": ["90-08 161st St", "Jamaica, NY 11432"]}, "phone": "+17182976426", "display_phone": "(718) 297-6426", "distance": 16440.84704034492}, {"id": "taco-dumbo-new-york-3", "name": "Taco Dumbo", "image_url": "https://s3-media3.fl.yelpcdn.com/bphoto/ipCtjvqctPTacYZxkUwVOQ/o.jpg", "is_closed": false, "url": "https://www.yelp.com/biz/taco-dumbo-new-york-3?adjust_creative=pY8zJUWQtPjP9LVSrcR4eg&utm_campaign=yelp_api_v3&utm_medium=api_v3_business_search&utm_source=pY8zJUWQtPjP9LVSrcR4eg", "review_count": 43, "categories": [{"alias": "mexican", "title": "Mexican"}, {"alias": "cocktailbars", "title": "Cocktail Bars"}], "rating": 4.0, "coordinates": {"latitude": 40.7604532, "longitude": -73.9775139}, "transactions": ["delivery", "pickup"], "price": "$$", "location": {"address1": "19 W 52nd St", "address2": null, "address3": "", "city": "New York", "zip_code": "10103", "country": "US", "state": "NY", "display_address": ["19 W 52nd St", "New York, NY 10103"]}, "phone": "+19172616284", "display_phone": "(917) 261-6284", "distance": 6270.880824621728}, {"id": "tacos-el-rey-brooklyn", "name": "Tacos El Rey", "image_url": "https://s3-media2.fl.yelpcdn.com/bphoto/qPlS-AH0ccNIsOek0QQgdw/o.jpg", "is_closed": false, "url": "https://www.yelp.com/biz/tacos-el-rey-brooklyn?adjust_creative=pY8zJUWQtPjP9LVSrcR4eg&utm_campaign=yelp_api_v3&utm_medium=api_v3_business_search&utm_source=pY8zJUWQtPjP9LVSrcR4eg", "review_count": 56, "categories": [{"alias": "mexican", "title": "Mexican"}, {"alias": "salad", "title": "Salad"}, {"alias": "breakfast_brunch", "title": "Breakfast & Brunch"}], "rating": 4.0, "coordinates": {"latitude": 40.578785, "longitude": -73.960027}, "transactions": [], "price": "$", "location": {"address1": "3168 Coney Island Ave", "address2": "", "address3": "", "city": "Brooklyn", "zip_code": "11235", "country": "US", "state": "NY", "display_address": ["3168 Coney Island Ave", "Brooklyn, NY 11235"]}, "phone": "+17187690116", "display_phone": "(718) 769-0116", "distance": 14377.241284782684}, {"id": "boticarios-new-york", "name": "Boticarios", "image_url": "https://s3-media4.fl.yelpcdn.com/bphoto/iT_KXSTTyzd1i0oornT5-w/o.jpg", "is_closed": false, "url": "https://www.yelp.com/biz/boticarios-new-york?adjust_creative=pY8zJUWQtPjP9LVSrcR4eg&utm_campaign=yelp_api_v3&utm_medium=api_v3_business_search&utm_source=pY8zJUWQtPjP9LVSrcR4eg", "review_count": 30, "categories": [{"alias": "cocktailbars", "title": "Cocktail Bars"}, {"alias": "latin", "title": "Latin American"}, {"alias": "gastropubs", "title": "Gastropubs"}], "rating": 5.0, "coordinates": {"latitude": 40.723828348853, "longitude": -73.989407704216}, "transactions": ["restaurant_reservation"], "price": "$$", "location": {"address1": "58 E 1st St", "address2": "", "address3": null, "city": "New York", "zip_code": "10003", "country": "US", "state": "NY", "display_address": ["58 E 1st St", "New York, NY 10003"]}, "phone": "+19172617850", "display_phone": "(917) 261-7850", "distance": 2085.206877092558}, {"id": "lolitas-kitchen-new-york", "name": "Lolita's Kitchen", "image_url": "https://s3-media2.fl.yelpcdn.com/bphoto/ceggUQy5ZVECvXin0LKPbw/o.jpg", "is_closed": false, "url": "https://www.yelp.com/biz/lolitas-kitchen-new-york?adjust_creative=pY8zJUWQtPjP9LVSrcR4eg&utm_campaign=yelp_api_v3&utm_medium=api_v3_business_search&utm_source=pY8zJUWQtPjP9LVSrcR4eg", "review_count": 58, "categories": [{"alias": "mexican", "title": "Mexican"}], "rating": 4.0, "coordinates": {"latitude": 40.7824207446896, "longitude": -73.9534502033954}, "transactions": ["delivery", "pickup"], "price": "$", "location": {"address1": "1364 Lexington Ave", "address2": "", "address3": "", "city": "New York", "zip_code": "10128", "country": "US", "state": "NY", "display_address": ["1364 Lexington Ave", "New York, NY 10128"]}, "phone": "+12127225055", "display_phone": "(212) 722-5055", "distance": 9225.028293171707}, {"id": "villa-cemita-new-york-2", "name": "Villa Cemita", "image_url": "https://s3-media1.fl.yelpcdn.com/bphoto/GCXmQSfiJVQf2T6eLU0KZA/o.jpg", "is_closed": false, "url": "https://www.yelp.com/biz/villa-cemita-new-york-2?adjust_creative=pY8zJUWQtPjP9LVSrcR4eg&utm_campaign=yelp_api_v3&utm_medium=api_v3_business_search&utm_source=pY8zJUWQtPjP9LVSrcR4eg", "review_count": 215, "categories": [{"alias": "mexican", "title": "Mexican"}, {"alias": "bars", "title": "Bars"}, {"alias": "breakfast_brunch", "title": "Breakfast & Brunch"}], "rating": 4.0, "coordinates": {"latitude": 40.72383, "longitude": -73.98478}, "transactions": ["pickup", "restaurant_reservation"], "price": "$$", "location": {"address1": "50 Ave A", "address2": "", "address3": "", "city": "New York", "zip_code": "10009", "country": "US", "state": "NY", "display_address": ["50 Ave A", "New York, NY 10009"]}, "phone": "+16469644528", "display_phone": "(646) 964-4528", "distance": 2193.6949520014377}, {"id": "blue-tijuana-college-point", "name": "Blue Tijuana", "image_url": "https://s3-media2.fl.yelpcdn.com/bphoto/63kOEtpgGV0kZ6iTPsPufQ/o.jpg", "is_closed": false, "url": "https://www.yelp.com/biz/blue-tijuana-college-point?adjust_creative=pY8zJUWQtPjP9LVSrcR4eg&utm_campaign=yelp_api_v3&utm_medium=api_v3_business_search&utm_source=pY8zJUWQtPjP9LVSrcR4eg", "review_count": 50, "categories": [{"alias": "mexican", "title": "Mexican"}], "rating": 4.0, "coordinates": {"latitude": 40.783534, "longitude": -73.846121}, "transactions": ["delivery", "pickup"], "price": "$$", "location": {"address1": "15-24 College Point Blvd", "address2": "", "address3": "", "city": "College Point", "zip_code": "11356", "country": "US", "state": "NY", "display_address": ["15-24 College Point Blvd", "College Point, NY 11356"]}, "phone": "+17188880455", "display_phone": "(718) 888-0455", "distance": 15205.690198997143}, {"id": "lupes-new-york-60", "name": "Lupe's", "image_url": "https://s3-media4.fl.yelpcdn.com/bphoto/q00rAeP2JDnL0NUeE2HNkA/o.jpg", "is_closed": false, "url": "https://www.yelp.com/biz/lupes-new-york-60?adjust_creative=pY8zJUWQtPjP9LVSrcR4eg&utm_campaign=yelp_api_v3&utm_medium=api_v3_business_search&utm_source=pY8zJUWQtPjP9LVSrcR4eg", "review_count": 316, "categories": [{"alias": "mexican", "title": "Mexican"}], "rating": 3.5, "coordinates": {"latitude": 40.72369, "longitude": -74.0045776}, "transactions": ["delivery", "pickup"], "price": "$$", "location": {"address1": "110 Ave Of The Americas", "address2": null, "address3": null, "city": "New York", "zip_code": "10013", "country": "US", "state": "NY", "display_address": ["110 Ave Of The Americas", "New York, NY 10013"]}, "phone": "+12129661326", "display_phone": "(212) 966-1326", "distance": 2201.247442516716}, {"id": "cholo-noir-new-york", "name": "Cholo Noir", "image_url": "https://s3-media2.fl.yelpcdn.com/bphoto/5YANn2wjNYNH61AsPs0GEw/o.jpg", "is_closed": false, "url": "https://www.yelp.com/biz/cholo-noir-new-york?adjust_creative=pY8zJUWQtPjP9LVSrcR4eg&utm_campaign=yelp_api_v3&utm_medium=api_v3_business_search&utm_source=pY8zJUWQtPjP9LVSrcR4eg", "review_count": 43, "categories": [{"alias": "mexican", "title": "Mexican"}, {"alias": "cocktailbars", "title": "Cocktail Bars"}], "rating": 4.5, "coordinates": {"latitude": 40.72548, "longitude": -73.98342}, "transactions": ["delivery", "pickup"], "price": "$$", "location": {"address1": "503 E 6th St", "address2": null, "address3": "", "city": "New York", "zip_code": "10009", "country": "US", "state": "NY", "display_address": ["503 E 6th St", "New York, NY 10009"]}, "phone": "+16468923044", "display_phone": "(646) 892-3044", "distance": 2402.789970235596}, {"id": "la-casa-de-los-tacos-secaucus", "name": "La Casa de Los Tacos", "image_url": "https://s3-media3.fl.yelpcdn.com/bphoto/ET3PShleWnJ7F_l4akhDoA/o.jpg", "is_closed": false, "url": "https://www.yelp.com/biz/la-casa-de-los-tacos-secaucus?adjust_creative=pY8zJUWQtPjP9LVSrcR4eg&utm_campaign=yelp_api_v3&utm_medium=api_v3_business_search&utm_source=pY8zJUWQtPjP9LVSrcR4eg", "review_count": 85, "categories": [{"alias": "tacos", "title": "Tacos"}], "rating": 4.0, "coordinates": {"latitude": 40.7740104861106, "longitude": -74.06321}, "transactions": [], "price": "$$", "location": {"address1": "290 County Ave", "address2": "", "address3": null, "city": "Secaucus", "zip_code": "07094", "country": "US", "state": "NJ", "display_address": ["290 County Ave", "Secaucus, NJ 07094"]}, "phone": "+12016010909", "display_phone": "(201) 601-0909", "distance": 9583.327425670457}, {"id": "tacombi-empire-state-building-new-york", "name": "Tacombi - Empire State Building", "image_url": "https://s3-media1.fl.yelpcdn.com/bphoto/0qicNec2WTheiEEdTK3-Hg/o.jpg", "is_closed": false, "url": "https://www.yelp.com/biz/tacombi-empire-state-building-new-york?adjust_creative=pY8zJUWQtPjP9LVSrcR4eg&utm_campaign=yelp_api_v3&utm_medium=api_v3_business_search&utm_source=pY8zJUWQtPjP9LVSrcR4eg", "review_count": 21, "categories": [{"alias": "mexican", "title": "Mexican"}], "rating": 4.0, "coordinates": {"latitude": 40.748375, "longitude": -73.9864908}, "transactions": [], "price": "$$", "location": {"address1": "23 W 33rd St", "address2": null, "address3": "", "city": "New York", "zip_code": "10118", "country": "US", "state": "NY", "display_address": ["23 W 33rd St", "New York, NY 10118"]}, "phone": "+12129675555", "display_phone": "(212) 967-5555", "distance": 4818.67367989701}, {"id": "athens-grill-and-sports-bar-astoria", "name": "Athens Grill & Sports Bar", "image_url": "https://s3-media3.fl.yelpcdn.com/bphoto/GkwwzLyXt4gstU8jSRNXQQ/o.jpg", "is_closed": false, "url": "https://www.yelp.com/biz/athens-grill-and-sports-bar-astoria?adjust_creative=pY8zJUWQtPjP9LVSrcR4eg&utm_campaign=yelp_api_v3&utm_medium=api_v3_business_search&utm_source=pY8zJUWQtPjP9LVSrcR4eg", "review_count": 177, "categories": [{"alias": "mexican", "title": "Mexican"}], "rating": 4.0, "coordinates": {"latitude": 40.7671808396101, "longitude": -73.9218648523092}, "transactions": [], "price": "$", "location": {"address1": "3011 30th Ave", "address2": "", "address3": "", "city": "Astoria", "zip_code": "11102", "country": "US", "state": "NY", "display_address": ["3011 30th Ave", "Astoria, NY 11102"]}, "phone": "+17187775366", "display_phone": "(718) 777-5366", "distance": 9184.984801669081}, {"id": "temerario-new-york-2", "name": "Temerario", "image_url": "https://s3-media3.fl.yelpcdn.com/bphoto/PP0BJhNrCwL8Pa7tHrYb0w/o.jpg", "is_closed": false, "url": "https://www.yelp.com/biz/temerario-new-york-2?adjust_creative=pY8zJUWQtPjP9LVSrcR4eg&utm_campaign=yelp_api_v3&utm_medium=api_v3_business_search&utm_source=pY8zJUWQtPjP9LVSrcR4eg", "review_count": 132, "categories": [{"alias": "mexican", "title": "Mexican"}, {"alias": "cocktailbars", "title": "Cocktail Bars"}], "rating": 3.5, "coordinates": {"latitude": 40.7434133400872, "longitude": -73.9996277220286}, "transactions": ["delivery", "pickup"], "price": "$$", "location": {"address1": "198 8th Ave", "address2": "", "address3": "", "city": "New York", "zip_code": "10011", "country": "US", "state": "NY", "display_address": ["198 8th Ave", "New York, NY 10011"]}, "phone": "+12126452100", "display_phone": "(212) 645-2100", "distance": 4245.762547974224}, {"id": "casa-mezcal-new-york", "name": "Casa Mezcal", "image_url": "https://s3-media3.fl.yelpcdn.com/bphoto/vnp7iX7SxBBQYTb8HMdLqw/o.jpg", "is_closed": false, "url": "https://www.yelp.com/biz/casa-mezcal-new-york?adjust_creative=pY8zJUWQtPjP9LVSrcR4eg&utm_campaign=yelp_api_v3&utm_medium=api_v3_business_search&utm_source=pY8zJUWQtPjP9LVSrcR4eg", "review_count": 346, "categories": [{"alias": "mexican", "title": "Mexican"}], "rating": 3.5, "coordinates": {"latitude": 40.7179602, "longitude": -73.9902328}, "transactions": ["delivery", "pickup", "restaurant_reservation"], "price": "$$", "location": {"address1": "86 Orchard St", "address2": "", "address3": "", "city": "New York", "zip_code": "10002", "country": "US", "state": "NY", "display_address": ["86 Orchard St", "New York, NY 10002"]}, "phone": "+12127772600", "display_phone": "(212) 777-2600", "distance": 1433.104153396198}, {"id": "pequena-brooklyn", "name": "Pequena", "image_url": "https://s3-media3.fl.yelpcdn.com/bphoto/gpM8cLqIw70yVCR-89CSOg/o.jpg", "is_closed": false, "url": "https://www.yelp.com/biz/pequena-brooklyn?adjust_creative=pY8zJUWQtPjP9LVSrcR4eg&utm_campaign=yelp_api_v3&utm_medium=api_v3_business_search&utm_source=pY8zJUWQtPjP9LVSrcR4eg", "review_count": 286, "categories": [{"alias": "mexican", "title": "Mexican"}], "rating": 3.5, "coordinates": {"latitude": 40.6868452, "longitude": -73.9747352}, "transactions": ["delivery", "pickup"], "price": "$$", "location": {"address1": "86 S Portland Ave", "address2": null, "address3": "", "city": "Brooklyn", "zip_code": "11217", "country": "US", "state": "NY", "display_address": ["86 S Portland Ave", "Brooklyn, NY 11217"]}, "phone": "+17186430000", "display_phone": "(718) 643-0000", "distance": 2642.620452183482}, {"id": "maya-taqueria-brooklyn-3", "name": "Maya Taqueria", "image_url": "https://s3-media1.fl.yelpcdn.com/bphoto/MP-G9olFCRAtRbsWS5DfQA/o.jpg", "is_closed": false, "url": "https://www.yelp.com/biz/maya-taqueria-brooklyn-3?adjust_creative=pY8zJUWQtPjP9LVSrcR4eg&utm_campaign=yelp_api_v3&utm_medium=api_v3_business_search&utm_source=pY8zJUWQtPjP9LVSrcR4eg", "review_count": 25, "categories": [{"alias": "mexican", "title": "Mexican"}], "rating": 4.0, "coordinates": {"latitude": 40.67763, "longitude": -73.9798}, "transactions": ["delivery", "pickup"], "price": "$", "location": {"address1": "168 5th Ave", "address2": "", "address3": null, "city": "Brooklyn", "zip_code": "11217", "country": "US", "state": "NY", "display_address": ["168 5th Ave", "Brooklyn, NY 11217"]}, "phone": "+17183986292", "display_phone": "(718) 398-6292", "distance": 3316.8925983335394}, {"id": "cascabel-taqueria-new-york-4", "name": "Cascabel Taqueria", "image_url": "https://s3-media2.fl.yelpcdn.com/bphoto/JBtiCisVxNsXOxwitBffyg/o.jpg", "is_closed": false, "url": "https://www.yelp.com/biz/cascabel-taqueria-new-york-4?adjust_creative=pY8zJUWQtPjP9LVSrcR4eg&utm_campaign=yelp_api_v3&utm_medium=api_v3_business_search&utm_source=pY8zJUWQtPjP9LVSrcR4eg", "review_count": 290, "categories": [{"alias": "mexican", "title": "Mexican"}, {"alias": "cocktailbars", "title": "Cocktail Bars"}], "rating": 3.5, "coordinates": {"latitude": 40.7743636, "longitude": -73.9539916}, "transactions": ["delivery", "pickup", "restaurant_reservation"], "price": "$$", "location": {"address1": "1556 2nd Ave", "address2": "", "address3": "", "city": "New York", "zip_code": "10028", "country": "US", "state": "NY", "display_address": ["1556 2nd Ave", "New York, NY 10028"]}, "phone": "+12127178226", "display_phone": "(212) 717-8226", "distance": 8381.921712853153}, {"id": "don-pancho-villa-restaurant-brooklyn", "name": "Don Pancho Villa Restaurant", "image_url": "https://s3-media2.fl.yelpcdn.com/bphoto/DU2s83h3_UQYYawjcA9RaA/o.jpg", "is_closed": false, "url": "https://www.yelp.com/biz/don-pancho-villa-restaurant-brooklyn?adjust_creative=pY8zJUWQtPjP9LVSrcR4eg&utm_campaign=yelp_api_v3&utm_medium=api_v3_business_search&utm_source=pY8zJUWQtPjP9LVSrcR4eg", "review_count": 161, "categories": [{"alias": "tex-mex", "title": "Tex-Mex"}, {"alias": "mexican", "title": "Mexican"}, {"alias": "asianfusion", "title": "Asian Fusion"}], "rating": 4.0, "coordinates": {"latitude": 40.7108400017023, "longitude": -73.9527411013842}, "transactions": ["delivery", "pickup", "restaurant_reservation"], "price": "$$", "location": {"address1": "189 Borinquen Pl", "address2": null, "address3": "", "city": "Brooklyn", "zip_code": "11211", "country": "US", "state": "NY", "display_address": ["189 Borinquen Pl", "Brooklyn, NY 11211"]}, "phone": "+17183884552", "display_phone": "(718) 388-4552", "distance": 3601.475522189208}, {"id": "cantina-taqueria-and-tequila-bar-new-york", "name": "Cantina Taqueria & Tequila Bar", "image_url": "https://s3-media4.fl.yelpcdn.com/bphoto/wxiVtvtKgTKz16pQYEf8qg/o.jpg", "is_closed": false, "url": "https://www.yelp.com/biz/cantina-taqueria-and-tequila-bar-new-york?adjust_creative=pY8zJUWQtPjP9LVSrcR4eg&utm_campaign=yelp_api_v3&utm_medium=api_v3_business_search&utm_source=pY8zJUWQtPjP9LVSrcR4eg", "review_count": 318, "categories": [{"alias": "mexican", "title": "Mexican"}, {"alias": "latin", "title": "Latin American"}, {"alias": "cocktailbars", "title": "Cocktail Bars"}], "rating": 4.0, "coordinates": {"latitude": 40.8003063353508, "longitude": -73.9549569049235}, "transactions": ["delivery", "pickup", "restaurant_reservation"], "price": "$$", "location": {"address1": "1838 7th Ave", "address2": null, "address3": "", "city": "New York", "zip_code": "10026", "country": "US", "state": "NY", "display_address": ["1838 7th Ave", "New York, NY 10026"]}, "phone": "+18336982267", "display_phone": "(833) 698-2267", "distance": 11056.280982877808}, {"id": "serenata-new-york-2", "name": "Serenata", "image_url": "https://s3-media3.fl.yelpcdn.com/bphoto/jLp7ZXeaEb7UCfyJ9ekdJg/o.jpg", "is_closed": false, "url": "https://www.yelp.com/biz/serenata-new-york-2?adjust_creative=pY8zJUWQtPjP9LVSrcR4eg&utm_campaign=yelp_api_v3&utm_medium=api_v3_business_search&utm_source=pY8zJUWQtPjP9LVSrcR4eg", "review_count": 173, "categories": [{"alias": "mexican", "title": "Mexican"}], "rating": 3.5, "coordinates": {"latitude": 40.7397308349609, "longitude": -73.995979309082}, "transactions": ["delivery", "pickup", "restaurant_reservation"], "price": "$$", "location": {"address1": "111 W 17th St", "address2": null, "address3": "", "city": "New York", "zip_code": "10011", "country": "US", "state": "NY", "display_address": ["111 W 17th St", "New York, NY 10011"]}, "phone": "+16463689105", "display_phone": "(646) 368-9105", "distance": 3810.9618314885497}, {"id": "tacombi-bleecker-street-new-york", "name": "Tacombi - Bleecker Street", "image_url": "https://s3-media3.fl.yelpcdn.com/bphoto/5STHlRlYrwCHtzkRl8Zczg/o.jpg", "is_closed": false, "url": "https://www.yelp.com/biz/tacombi-bleecker-street-new-york?adjust_creative=pY8zJUWQtPjP9LVSrcR4eg&utm_campaign=yelp_api_v3&utm_medium=api_v3_business_search&utm_source=pY8zJUWQtPjP9LVSrcR4eg", "review_count": 231, "categories": [{"alias": "mexican", "title": "Mexican"}, {"alias": "juicebars", "title": "Juice Bars & Smoothies"}, {"alias": "sandwiches", "title": "Sandwiches"}], "rating": 3.5, "coordinates": {"latitude": 40.73112, "longitude": -74.00272}, "transactions": ["delivery"], "price": "$$", "location": {"address1": "255 Bleecker St", "address2": "", "address3": "", "city": "New York", "zip_code": "10014", "country": "US", "state": "NY", "display_address": ["255 Bleecker St", "New York, NY 10014"]}, "phone": "+16469645984", "display_phone": "(646) 964-5984", "distance": 2941.47004558728}, {"id": "tacos-cholula-new-york", "name": "Tacos Cholula", "image_url": "https://s3-media1.fl.yelpcdn.com/bphoto/ExLxs_E7iXEBnk7RGAAx6w/o.jpg", "is_closed": false, "url": "https://www.yelp.com/biz/tacos-cholula-new-york?adjust_creative=pY8zJUWQtPjP9LVSrcR4eg&utm_campaign=yelp_api_v3&utm_medium=api_v3_business_search&utm_source=pY8zJUWQtPjP9LVSrcR4eg", "review_count": 133, "categories": [{"alias": "mexican", "title": "Mexican"}, {"alias": "streetvendors", "title": "Street Vendors"}], "rating": 4.0, "coordinates": {"latitude": 40.72301, "longitude": -73.98605}, "transactions": [], "price": "$", "location": {"address1": "25 Ave A", "address2": "", "address3": "", "city": "New York", "zip_code": "10009", "country": "US", "state": "NY", "display_address": ["25 Ave A", "New York, NY 10009"]}, "phone": "+13477725216", "display_phone": "(347) 772-5216", "distance": 2072.082997464418}, {"id": "papatzul-new-york", "name": "Papatzul", "image_url": "https://s3-media2.fl.yelpcdn.com/bphoto/PxsUnvnaCVPkeQtlAx7q5g/o.jpg", "is_closed": false, "url": "https://www.yelp.com/biz/papatzul-new-york?adjust_creative=pY8zJUWQtPjP9LVSrcR4eg&utm_campaign=yelp_api_v3&utm_medium=api_v3_business_search&utm_source=pY8zJUWQtPjP9LVSrcR4eg", "review_count": 350, "categories": [{"alias": "mexican", "title": "Mexican"}, {"alias": "bars", "title": "Bars"}], "rating": 3.5, "coordinates": {"latitude": 40.722148, "longitude": -74.003677}, "transactions": ["delivery", "pickup"], "price": "$$", "location": {"address1": "55 Grand St", "address2": null, "address3": "", "city": "New York", "zip_code": "10013", "country": "US", "state": "NY", "display_address": ["55 Grand St", "New York, NY 10013"]}, "phone": "+12122748225", "display_phone": "(212) 274-8225", "distance": 2017.4564123280798}, {"id": "coatzingo-restaurant-jackson-heights", "name": "Coatzingo Restaurant", "image_url": "https://s3-media1.fl.yelpcdn.com/bphoto/QINoiTkKDqWZUCz-qTSUSA/o.jpg", "is_closed": false, "url": "https://www.yelp.com/biz/coatzingo-restaurant-jackson-heights?adjust_creative=pY8zJUWQtPjP9LVSrcR4eg&utm_campaign=yelp_api_v3&utm_medium=api_v3_business_search&utm_source=pY8zJUWQtPjP9LVSrcR4eg", "review_count": 37, "categories": [{"alias": "tacos", "title": "Tacos"}], "rating": 4.5, "coordinates": {"latitude": 40.74759, "longitude": -73.88623}, "transactions": [], "price": "$", "location": {"address1": "79-11 Roosevelt Ave", "address2": "", "address3": "", "city": "Jackson Heights", "zip_code": "11372", "country": "US", "state": "NY", "display_address": ["79-11 Roosevelt Ave", "Jackson Heights, NY 11372"]}, "phone": "+17184247272", "display_phone": "(718) 424-7272", "distance": 10236.58574931134}, {"id": "gmc-temaxcal-deli-and-grocery-brooklyn", "name": "GMC Temaxcal Deli & Grocery", "image_url": "https://s3-media1.fl.yelpcdn.com/bphoto/df0wN91W3Lb-WQZRXBveEg/o.jpg", "is_closed": false, "url": "https://www.yelp.com/biz/gmc-temaxcal-deli-and-grocery-brooklyn?adjust_creative=pY8zJUWQtPjP9LVSrcR4eg&utm_campaign=yelp_api_v3&utm_medium=api_v3_business_search&utm_source=pY8zJUWQtPjP9LVSrcR4eg", "review_count": 27, "categories": [{"alias": "mexican", "title": "Mexican"}, {"alias": "grocery", "title": "Grocery"}, {"alias": "delis", "title": "Delis"}], "rating": 5.0, "coordinates": {"latitude": 40.696418, "longitude": -73.972984}, "transactions": ["delivery", "pickup"], "price": "$", "location": {"address1": "163 Park Ave", "address2": "", "address3": "", "city": "Brooklyn", "zip_code": "11205", "country": "US", "state": "NY", "display_address": ["163 Park Ave", "Brooklyn, NY 11205"]}, "phone": "+17183078100", "display_phone": "(718) 307-8100", "distance": 2059.744094664566}, {"id": "bar-bruno-brooklyn-2", "name": "Bar Bruno", "image_url": "https://s3-media3.fl.yelpcdn.com/bphoto/SF96SXhW6cPRPizgaRmWKQ/o.jpg", "is_closed": false, "url": "https://www.yelp.com/biz/bar-bruno-brooklyn-2?adjust_creative=pY8zJUWQtPjP9LVSrcR4eg&utm_campaign=yelp_api_v3&utm_medium=api_v3_business_search&utm_source=pY8zJUWQtPjP9LVSrcR4eg", "review_count": 196, "categories": [{"alias": "newamerican", "title": "American (New)"}, {"alias": "mexican", "title": "Mexican"}, {"alias": "bars", "title": "Bars"}], "rating": 4.0, "coordinates": {"latitude": 40.6833674, "longitude": -73.9997959}, "transactions": ["delivery", "pickup"], "price": "$$", "location": {"address1": "520 Henry St", "address2": null, "address3": "", "city": "Brooklyn", "zip_code": "11231", "country": "US", "state": "NY", "display_address": ["520 Henry St", "Brooklyn, NY 11231"]}, "phone": "+13477630850", "display_phone": "(347) 763-0850", "distance": 2498.349709499574}, {"id": "calaca-bedford-stuyvesant", "name": "Calaca", "image_url": "https://s3-media4.fl.yelpcdn.com/bphoto/a18Gq4RO4pGtNznHpU39CQ/o.jpg", "is_closed": false, "url": "https://www.yelp.com/biz/calaca-bedford-stuyvesant?adjust_creative=pY8zJUWQtPjP9LVSrcR4eg&utm_campaign=yelp_api_v3&utm_medium=api_v3_business_search&utm_source=pY8zJUWQtPjP9LVSrcR4eg", "review_count": 138, "categories": [{"alias": "mexican", "title": "Mexican"}, {"alias": "bars", "title": "Bars"}], "rating": 4.5, "coordinates": {"latitude": 40.6834, "longitude": -73.9565499}, "transactions": [], "price": "$$", "location": {"address1": "139 Putnam Ave", "address2": "", "address3": "", "city": "Bedford-Stuyvesant", "zip_code": "11238", "country": "US", "state": "NY", "display_address": ["139 Putnam Ave", "Bedford-Stuyvesant, NY 11238"]}, "phone": "+17186220022", "display_phone": "(718) 622-0022", "distance": 4028.2877316046115}, {"id": "taqueria-la-placita-puebla-brooklyn", "name": "Taqueria La Placita Puebla", "image_url": "https://s3-media1.fl.yelpcdn.com/bphoto/CF7SNLQWSn44y81GkjEMRw/o.jpg", "is_closed": false, "url": "https://www.yelp.com/biz/taqueria-la-placita-puebla-brooklyn?adjust_creative=pY8zJUWQtPjP9LVSrcR4eg&utm_campaign=yelp_api_v3&utm_medium=api_v3_business_search&utm_source=pY8zJUWQtPjP9LVSrcR4eg", "review_count": 47, "categories": [{"alias": "mexican", "title": "Mexican"}], "rating": 4.0, "coordinates": {"latitude": 40.69908, "longitude": -73.93946}, "transactions": [], "price": "$", "location": {"address1": "830 Broadway", "address2": "", "address3": "", "city": "Brooklyn", "zip_code": "11206", "country": "US", "state": "NY", "display_address": ["830 Broadway", "Brooklyn, NY 11206"]}, "phone": "+17183021092", "display_phone": "(718) 302-1092", "distance": 4677.3675534431795}, {"id": "nacho-macho-taco-crown-heights", "name": "Nacho Macho Taco", "image_url": "https://s3-media4.fl.yelpcdn.com/bphoto/7mjPnChk4Cdee_rK7Ba5wQ/o.jpg", "is_closed": false, "url": "https://www.yelp.com/biz/nacho-macho-taco-crown-heights?adjust_creative=pY8zJUWQtPjP9LVSrcR4eg&utm_campaign=yelp_api_v3&utm_medium=api_v3_business_search&utm_source=pY8zJUWQtPjP9LVSrcR4eg", "review_count": 207, "categories": [{"alias": "mexican", "title": "Mexican"}], "rating": 4.5, "coordinates": {"latitude": 40.6764068073189, "longitude": -73.9627275318417}, "transactions": ["delivery", "pickup"], "price": "$$", "location": {"address1": "417 Prospect Pl", "address2": "", "address3": "", "city": "Crown Heights", "zip_code": "11238", "country": "US", "state": "NY", "display_address": ["417 Prospect Pl", "Crown Heights, NY 11238"]}, "phone": "+17186222727", "display_phone": "(718) 622-2727", "distance": 4184.322320960344}, {"id": "dos-toros-taqueria-new-york", "name": "Dos Toros Taqueria", "image_url": "https://s3-media1.fl.yelpcdn.com/bphoto/zjvJscTQGwX35mwkhXmF9g/o.jpg", "is_closed": false, "url": "https://www.yelp.com/biz/dos-toros-taqueria-new-york?adjust_creative=pY8zJUWQtPjP9LVSrcR4eg&utm_campaign=yelp_api_v3&utm_medium=api_v3_business_search&utm_source=pY8zJUWQtPjP9LVSrcR4eg", "review_count": 1252, "categories": [{"alias": "mexican", "title": "Mexican"}], "rating": 4.0, "coordinates": {"latitude": 40.7336815475083, "longitude": -73.9897049423153}, "transactions": [], "price": "$", "location": {"address1": "137 4th Ave", "address2": "", "address3": "", "city": "New York", "zip_code": "10003", "country": "US", "state": "NY", "display_address": ["137 4th Ave", "New York, NY 10003"]}, "phone": "+12126777300", "display_phone": "(212) 677-7300", "distance": 3163.493720368736}, {"id": "sinigual-new-york", "name": "Sinigual", "image_url": "https://s3-media2.fl.yelpcdn.com/bphoto/CIdEW6-GLY4Rx6AFwXKMEA/o.jpg", "is_closed": false, "url": "https://www.yelp.com/biz/sinigual-new-york?adjust_creative=pY8zJUWQtPjP9LVSrcR4eg&utm_campaign=yelp_api_v3&utm_medium=api_v3_business_search&utm_source=pY8zJUWQtPjP9LVSrcR4eg", "review_count": 636, "categories": [{"alias": "mexican", "title": "Mexican"}, {"alias": "bars", "title": "Bars"}], "rating": 3.5, "coordinates": {"latitude": 40.7503161990978, "longitude": -73.9750733399726}, "transactions": ["delivery", "pickup"], "price": "$$", "location": {"address1": "640 3rd Ave", "address2": "", "address3": "", "city": "New York", "zip_code": "10017", "country": "US", "state": "NY", "display_address": ["640 3rd Ave", "New York, NY 10017"]}, "phone": "+12122860250", "display_phone": "(212) 286-0250", "distance": 5245.732067638204}, {"id": "cafe-frida-new-york", "name": "Cafe Frida", "image_url": "https://s3-media1.fl.yelpcdn.com/bphoto/K5KkXHHhDWwUoOd0ptptdg/o.jpg", "is_closed": false, "url": "https://www.yelp.com/biz/cafe-frida-new-york?adjust_creative=pY8zJUWQtPjP9LVSrcR4eg&utm_campaign=yelp_api_v3&utm_medium=api_v3_business_search&utm_source=pY8zJUWQtPjP9LVSrcR4eg", "review_count": 558, "categories": [{"alias": "mexican", "title": "Mexican"}], "rating": 3.5, "coordinates": {"latitude": 40.7808959, "longitude": -73.9764829}, "transactions": ["delivery", "pickup"], "price": "$$", "location": {"address1": "368 Columbus Ave", "address2": "", "address3": "", "city": "New York", "zip_code": "10024", "country": "US", "state": "NY", "display_address": ["368 Columbus Ave", "New York, NY 10024"]}, "phone": "+12127122929", "display_phone": "(212) 712-2929", "distance": 8530.822687007327}, {"id": "cantina-royal-brooklyn", "name": "Cantina Royal", "image_url": "https://s3-media4.fl.yelpcdn.com/bphoto/u3Ys2OIPmsoXdZ4Qtw-JqQ/o.jpg", "is_closed": false, "url": "https://www.yelp.com/biz/cantina-royal-brooklyn?adjust_creative=pY8zJUWQtPjP9LVSrcR4eg&utm_campaign=yelp_api_v3&utm_medium=api_v3_business_search&utm_source=pY8zJUWQtPjP9LVSrcR4eg", "review_count": 191, "categories": [{"alias": "mexican", "title": "Mexican"}, {"alias": "bars", "title": "Bars"}], "rating": 3.5, "coordinates": {"latitude": 40.7175416270346, "longitude": -73.9634865865082}, "transactions": ["pickup", "restaurant_reservation", "delivery"], "price": "$$", "location": {"address1": "58 N 3rd St", "address2": "", "address3": "", "city": "Brooklyn", "zip_code": "11211", "country": "US", "state": "NY", "display_address": ["58 N 3rd St", "Brooklyn, NY 11211"]}, "phone": "+13477632938", "display_phone": "(347) 763-2938", "distance": 2924.2872995956136}], "total": 4500, "region": {"center": {"longitude": -73.9942932129, "latitude": 40.7054448644}}}